[{"sector":"independent","school_name":"A.G.B.U. Alexander Primary School","suburb":"Duffys Forest","postcode":"2084","phone":"+61 2 9486 3266","public_email":"office@alexander.nsw.edu.au","contact_form_url":"https://alexander.nsw.edu.au/","website_url":"https://www.alexander.nsw.edu.au/","lat":-33.6583,"lon":151.2107},{"sector":"government","school_name":"Abbotsford Public School","suburb":"Abbotsford","postcode":"2046","phone":"9713 6220","public_email":"abbotsford-p.school@det.nsw.edu.au","contact_form_url":"","website_url":"https://abbotsford-p.schools.nsw.gov.au","lat":-33.8582,"lon":151.1309},{"sector":"independent","school_name":"Abbotsleigh","suburb":"Wahroonga","postcode":"2076","phone":"+61 2 9473 7777","public_email":"","contact_form_url":"","website_url":"http://www.abbotsleigh.nsw.edu.au","lat":-33.7053,"lon":151.1228},{"sector":"independent","school_name":"Abbotsleigh Junior School","suburb":"Wahroonga","postcode":"2076","phone":"+61 2 9473 7777","public_email":"","contact_form_url":"","website_url":"https://www.abbotsleigh.nsw.edu.au","lat":-33.7053,"lon":151.1228},{"sector":"government","school_name":"Aberdeen Public School","suburb":"Aberdeen","postcode":"2336","phone":"6543 7271","public_email":"aberdeen-p.school@det.nsw.edu.au","contact_form_url":"","website_url":"https://aberdeen-p.schools.nsw.gov.au","lat":-32.1586,"lon":150.942},{"sector":"government","school_name":"Abermain Public School","suburb":"Abermain","postcode":"2326","phone":"4930 4210","public_email":"abermain-p.school@det.nsw.edu.au","contact_form_url":"","website_url":"https://abermain-p.schools.nsw.gov.au","lat":-32.8276,"lon":151.4082},{"sector":"government","school_name":"Adaminaby Public School","suburb":"Adaminaby","postcode":"2629","phone":"6454 2265","public_email":"adaminaby-p.school@det.nsw.edu.au","contact_form_url":"","website_url":"https://adaminaby-p.schools.nsw.gov.au","lat":-35.9965,"lon":148.7724},{"sector":"government","school_name":"Adamstown Public School","suburb":"Adamstown","postcode":"2289","phone":"4957 1114","public_email":"adamstown-p.school@det.nsw.edu.au","contact_form_url":"","website_url":"https://adamstown-p.schools.nsw.gov.au","lat":-32.9428,"lon":151.6958},{"sector":"government","school_name":"Adelong Public School","suburb":"Adelong","postcode":"2729","phone":"6946 2053","public_email":"adelong-p.school@det.nsw.edu.au","contact_form_url":"","website_url":"https://adelong-p.schools.nsw.gov.au","lat":-35.0974,"lon":147.8123},{"sector":"independent","school_name":"Aetaomah School","suburb":"Terragon","postcode":"2484","phone":"+61 2 6679 7255","public_email":"contact@aetaomah.nsw.edu.au","contact_form_url":"https://www.aetaomah.nsw.edu.au/contact-us-1","website_url":"http://www.aetaomah.nsw.edu.au","lat":-28.3702,"lon":153.3425},{"sector":"government","school_name":"Airds High School","suburb":"Campbelltown","postcode":"2560","phone":"4625 5811","public_email":"airds-h.school@det.nsw.edu.au","contact_form_url":"","website_url":"https://airds-h.schools.nsw.gov.au","lat":-34.05,"lon":150.8333},{"sector":"government","school_name":"Ajuga School","suburb":"Glenfield","postcode":"2167","phone":"9827 6100","public_email":"ajuga-s.school@det.nsw.edu.au","contact_form_url":"","website_url":"https://ajuga-s.schools.nsw.gov.au","lat":-33.9667,"lon":150.9},{"sector":"independent","school_name":"Al Amanah College - Bankstown","suburb":"Bankstown","postcode":"2200","phone":"+61 2 9708 1220","public_email":"admin@alamanah.nsw.edu.au","contact_form_url":"https://www.alamanah.nsw.edu.au/","website_url":"https://www.alamanah.nsw.edu.au","lat":-33.9196,"lon":151.0308},{"sector":"independent","school_name":"Al Amanah College - Liverpool","suburb":"Liverpool","postcode":"2170","phone":"02 9822 8022","public_email":"admin@alamanah.nsw.edu.au","contact_form_url":"https://www.alamanah.nsw.edu.au/","website_url":"https://www.alamanah.nsw.edu.au/","lat":-33.9522,"lon":150.8995},{"sector":"independent","school_name":"Al Hikma College","suburb":"Lakemba","postcode":"2195","phone":"02 9703 3017","public_email":"admin@alhikma.nsw.edu.au","contact_form_url":"http://www.alhikma.nsw.edu.au","website_url":"http://www.alhikma.nsw.edu.au","lat":-33.922,"lon":151.0716},{"sector":"independent","school_name":"Al Noori Muslim School - Primary Campus","suburb":"Greenacre","postcode":"2190","phone":"02 9790 5726","public_email":"","contact_form_url":"https://alnoori.nsw.edu.au/","website_url":"http://www.alnoori.nsw.edu.au","lat":-33.9003,"lon":151.0556},{"sector":"independent","school_name":"Al Noori Muslim School - Senior Campus","suburb":"Greenacre","postcode":"2190","phone":"02 9790 5726","public_email":"","contact_form_url":"https://alnoori.nsw.edu.au/","website_url":"https://www.alnoori.nsw.edu.au","lat":-33.9003,"lon":151.0556},{"sector":"independent","school_name":"Al Sadiq College","suburb":"Greenacre","postcode":"2190","phone":"+61 2 9750 6011","public_email":"","contact_form_url":"","website_url":"https://www.alsadiq.nsw.edu.au","lat":-33.9003,"lon":151.0556},{"sector":"independent","school_name":"Al Sadiq College - Primary Campus","suburb":"Yagoona","postcode":"2199","phone":"+61 2 9796 4240","public_email":"","contact_form_url":"","website_url":"https://www.alsadiq.nsw.edu.au","lat":-33.9049,"lon":151.02},{"sector":"independent","school_name":"Al Zahra College","suburb":"Arncliffe","postcode":"2205","phone":"02 9599 0161","public_email":"info@azc.nsw.edu.au","contact_form_url":"https://www.azc.nsw.edu.au/","website_url":"https://www.azc.nsw.edu.au","lat":-33.9313,"lon":151.1522},{"sector":"independent","school_name":"Al-Faisal College","suburb":"Auburn","postcode":"2144","phone":"+61 2 8877 2000","public_email":"alfaisalcollege@afc.nsw.edu.au","contact_form_url":"https://www.afc.nsw.edu.au/contact-us","website_url":"https://www.afc.nsw.edu.au","lat":-33.85,"lon":151.0333},{"sector":"independent","school_name":"Al-Faisal College - Campbelltown Campus","suburb":"Minto","postcode":"2566","phone":"02 9603 5866","public_email":"alfaisalcollege@afc.nsw.edu.au","contact_form_url":"https://www.afc.nsw.edu.au/contact-us","website_url":"https://www.afc.nsw.edu.au","lat":-34.0224,"lon":150.8296},{"sector":"independent","school_name":"Al-Faisal College - Lakemba","suburb":"Lakemba","postcode":"2195","phone":"","public_email":"alfaisalcollege@afc.nsw.edu.au","contact_form_url":"http://afc.nsw.edu.au/contact-us","website_url":"http://afc.nsw.edu.au/","lat":-33.922,"lon":151.0716},{"sector":"independent","school_name":"Al-Faisal College - Liverpool Campus","suburb":"Austral","postcode":"2179","phone":"+61 2 9606 0355","public_email":"alfaisalcollege@afc.nsw.edu.au","contact_form_url":"https://www.afc.nsw.edu.au/contact-us","website_url":"https://www.afc.nsw.edu.au","lat":-33.9698,"lon":150.7967},{"sector":"government","school_name":"Albert Park Public School","suburb":"East Lismore","postcode":"2480","phone":"6621 3259","public_email":"albertpk-p.school@det.nsw.edu.au","contact_form_url":"","website_url":"https://albertpk-p.schools.nsw.gov.au","lat":-28.7493,"lon":153.2724},{"sector":"government","school_name":"Albion Park High School","suburb":"Albion Park","postcode":"2527","phone":"4257 1744","public_email":"albionpk-h.school@det.nsw.edu.au","contact_form_url":"","website_url":"https://albionpk-h.schools.nsw.gov.au","lat":-34.5713,"lon":150.7757},{"sector":"government","school_name":"Albion Park Public School","suburb":"Albion Park","postcode":"2527","phone":"4256 1244","public_email":"albionpk-p.school@det.nsw.edu.au","contact_form_url":"","website_url":"https://albionpk-p.schools.nsw.gov.au","lat":-34.5713,"lon":150.7757},{"sector":"government","school_name":"Albion Park Rail Public School","suburb":"Albion Park Rail","postcode":"2527","phone":"4256 1287","public_email":"albionpkr-p.school@det.nsw.edu.au","contact_form_url":"","website_url":"https://albionpkr-p.schools.nsw.gov.au","lat":-34.5713,"lon":150.7757},{"sector":"government","school_name":"Albury High School","suburb":"Albury","postcode":"2640","phone":"6021 3488","public_email":"albury-h.school@det.nsw.edu.au","contact_form_url":"","website_url":"https://albury-h.schools.nsw.gov.au","lat":-36.0865,"lon":146.9091},{"sector":"government","school_name":"Albury North Public School","suburb":"Albury","postcode":"2640","phone":"6025 1730","public_email":"alburynth-p.school@det.nsw.edu.au","contact_form_url":"","website_url":"https://alburynth-p.schools.nsw.gov.au","lat":-36.0865,"lon":146.9091},{"sector":"government","school_name":"Albury Public School","suburb":"Albury","postcode":"2640","phone":"02 6021 3849","public_email":"albury-p.school@det.nsw.edu.au","contact_form_url":"","website_url":"https://albury-p.schools.nsw.gov.au","lat":-36.0865,"lon":146.9091},{"sector":"government","school_name":"Albury West Public School","suburb":"Albury","postcode":"2640","phone":"6021 2288","public_email":"alburywest-p.school@det.nsw.edu.au","contact_form_url":"","website_url":"https://alburywest-p.schools.nsw.gov.au","lat":-36.0865,"lon":146.9091},{"sector":"government","school_name":"Aldavilla Public School","suburb":"Yarravel","postcode":"2440","phone":"6563 1141","public_email":"aldavilla-p.school@det.nsw.edu.au","contact_form_url":"","website_url":"https://aldavilla-p.schools.nsw.gov.au","lat":-31.1332,"lon":152.7514},{"sector":"independent","school_name":"Alesco Secondary College","suburb":"Cooks Hill","postcode":"2300","phone":"+61 2 4925 4200","public_email":"","contact_form_url":"","website_url":"https://atwea.edu.au/high-school-at-alesco/","lat":-32.9295,"lon":151.7801},{"sector":"independent","school_name":"Alesco Secondary College - Abermain Campus","suburb":"Abermain","postcode":"2326","phone":"+61 2 4925 4200","public_email":"","contact_form_url":"","website_url":"https://atwea.edu.au/high-school-at-alesco/","lat":-32.8276,"lon":151.4082},{"sector":"independent","school_name":"Alesco Secondary College - Charlestown Campus","suburb":"Charlestown","postcode":"2290","phone":"+61 2 4925 4200","public_email":"","contact_form_url":"","website_url":"https://atwea.edu.au/high-school-at-alesco/","lat":-32.9937,"lon":151.722},{"sector":"independent","school_name":"Alesco Secondary College - Coast Campus","suburb":"Tuncurry","postcode":"2324","phone":"+61 2 4925 4200","public_email":"","contact_form_url":"","website_url":"https://atwea.edu.au/high-school-at-alesco/","lat":-32.6478,"lon":151.7616},{"sector":"independent","school_name":"Alesco Secondary College - Northlakes Campus","suburb":"Argenton","postcode":"2284","phone":"+61 2 4925 4200","public_email":"","contact_form_url":"","website_url":"https://atwea.edu.au/high-school-at-alesco/","lat":-32.9806,"lon":151.6184},{"sector":"independent","school_name":"Alesco Secondary College - Raymond Terrace Campus","suburb":"Raymond Terrace","postcode":"2324","phone":"+61 2 4925 4200","public_email":"","contact_form_url":"","website_url":"https://atwea.edu.au/high-school-at-alesco/","lat":-32.6478,"lon":151.7616},{"sector":"independent","school_name":"Alesco Secondary College - Tomaree Campus","suburb":"Nelson Bay","postcode":"2315","phone":"+61 2 4925 4200","public_email":"","contact_form_url":"","website_url":"https://atwea.edu.au/high-school-at-alesco/","lat":-32.7281,"lon":152.1496},{"sector":"independent","school_name":"Alesco Secondary College - Woodberry Campus","suburb":"Woodberry","postcode":"2322","phone":"+61 2 4925 4200","public_email":"","contact_form_url":"","website_url":"https://atwea.edu.au/high-school-at-alesco/","lat":-32.7931,"lon":151.6769},{"sector":"government","school_name":"Alexandria Park Community School","suburb":"Alexandria","postcode":"2015","phone":"9698 1967","public_email":"alexparkcs-c.school@det.nsw.edu.au","contact_form_url":"","website_url":"https://alexparkcs-c.schools.nsw.gov.au","lat":-33.9115,"lon":151.2004},{"sector":"government","school_name":"Alfords Point Public School","suburb":"Alfords Point","postcode":"2234","phone":"9543 0185","public_email":"alfordspt-p.school@det.nsw.edu.au","contact_form_url":"","website_url":"https://alfordspt-p.schools.nsw.gov.au","lat":-34.0341,"lon":151.0119},{"sector":"catholic","school_name":"All Hallows Catholic Primary School","suburb":"Five Dock","postcode":"2046","phone":"(02) 9713 4469","public_email":"info@ahpsfivedock.catholic.edu.au","contact_form_url":"","website_url":"https://ahpsfivedock.syd.catholic.edu.au","lat":-33.8582,"lon":151.1309},{"sector":"catholic","school_name":"All Hallows Catholic Primary School Gulgong","suburb":"Gulgong","postcode":"2852","phone":"(02) 6374 1582","public_email":"allhallowsgulgong@bth.catholic.edu.au","contact_form_url":"","website_url":"https://www.allhallowsgulgong.catholic.edu.au","lat":-32.3818,"lon":149.2762},{"sector":"catholic","school_name":"All Saints Catholic College","suburb":"Liverpool","postcode":"2170","phone":"(02) 9602 4555","public_email":"info@ascc.catholic.edu.au","contact_form_url":"","website_url":"https://ascc.syd.catholic.edu.au","lat":-33.9522,"lon":150.8995},{"sector":"catholic","school_name":"All Saints Catholic College, Casula Campus","suburb":"Casula","postcode":"2170","phone":"(02) 9602 4555","public_email":"info@ascc.catholic.edu.au","contact_form_url":"","website_url":"https://ascc.syd.catholic.edu.au","lat":-33.9522,"lon":150.8995},{"sector":"catholic","school_name":"All Saints College","suburb":"Maitland","postcode":"2320","phone":"(02) 4933 6177","public_email":"admin@maitlandsm.catholic.edu.au","contact_form_url":"","website_url":"https://maitlandasc.catholic.edu.au","lat":-32.7288,"lon":151.5345},{"sector":"catholic","school_name":"All Saints College (St Peter's Campus)","suburb":"Maitland","postcode":"2320","phone":"(02) 4933 6177","public_email":"admin@maitlandsp.catholic.edu.au","contact_form_url":"","website_url":"https://maitlandasc.catholic.edu.au","lat":-32.7288,"lon":151.5345},{"sector":"independent","school_name":"All Saints Grammar","suburb":"Belmore","postcode":"2192","phone":"+61 2 9704 6400","public_email":"admin@allsaints.nsw.edu.au","contact_form_url":"https://www.allsaints.nsw.edu.au","website_url":"https://www.allsaints.nsw.edu.au","lat":-33.919,"lon":151.0894},{"sector":"independent","school_name":"All Saints Grammar Junior School","suburb":"Belmore","postcode":"2192","phone":"+61 2 9704 6400","public_email":"admin@allsaints.nsw.edu.au","contact_form_url":"https://www.allsaints.nsw.edu.au","website_url":"https://www.allsaints.nsw.edu.au","lat":-33.919,"lon":151.0894},{"sector":"catholic","school_name":"All Saints Primary School","suburb":"Tumbarumba","postcode":"2653","phone":"(02) 6948 2395","public_email":"info@asww.catholic.edu.au","contact_form_url":"","website_url":"https://web.asww.catholic.edu.au","lat":-35.7781,"lon":148.0117},{"sector":"government","school_name":"Allambie Heights Public School","suburb":"Allambie Heights","postcode":"2100","phone":"9451 5440","public_email":"allambieht-p.school@det.nsw.edu.au","contact_form_url":"","website_url":"https://allambieht-p.schools.nsw.gov.au","lat":-33.7666,"lon":151.2498},{"sector":"independent","school_name":"Allegra School Coffs Harbour","suburb":"Coffs Harbour","postcode":"2450","phone":"+61 2 6651 6898","public_email":"","contact_form_url":"","website_url":"https://www.allegraschool.nsw.edu.au","lat":-30.1574,"lon":153.0958},{"sector":"government","school_name":"Alma Public School","suburb":"Broken Hill","postcode":"2880","phone":"08 8088 2181","public_email":"alma-p.school@det.nsw.edu.au","contact_form_url":"","website_url":"https://alma-p.schools.nsw.gov.au","lat":-31.8333,"lon":141.5102},{"sector":"independent","school_name":"Alpha Omega Senior College","suburb":"Auburn","postcode":"2144","phone":"+61 2 9199 3900","public_email":"theregistrar@aosc.nsw.edu.au","contact_form_url":"https://www.aosc.nsw.edu.au/contact-us","website_url":"https://www.aosc.nsw.edu.au/","lat":-33.85,"lon":151.0333},{"sector":"independent","school_name":"Alpha Omega Senior College - Queen Street Campus","suburb":"Auburn","postcode":"2144","phone":"+61 2 9199 3900","public_email":"","contact_form_url":"","website_url":"https://www.aosc.nsw.edu.au/enrol/","lat":-33.85,"lon":151.0333},{"sector":"government","school_name":"Alstonville High School","suburb":"Alstonville","postcode":"2477","phone":"6628 5222","public_email":"alstonvill-h.school@det.nsw.edu.au","contact_form_url":"","website_url":"https://alstonvill-h.schools.nsw.gov.au","lat":-28.8902,"lon":153.4389},{"sector":"government","school_name":"Alstonville Public School","suburb":"Alstonville","postcode":"2477","phone":"02 6628 0775","public_email":"alstonvill-p.school@det.nsw.edu.au","contact_form_url":"","website_url":"https://alstonvill-p.schools.nsw.gov.au","lat":-28.8902,"lon":153.4389},{"sector":"government","school_name":"Ambarvale High School","suburb":"Rosemeadow","postcode":"2560","phone":"4627 1800","public_email":"ambarvale-h.school@det.nsw.edu.au","contact_form_url":"","website_url":"https://ambarvale-h.schools.nsw.gov.au","lat":-34.05,"lon":150.8333},{"sector":"government","school_name":"Ambarvale Public School","suburb":"Ambarvale","postcode":"2560","phone":"4626 1485","public_email":"ambarvale-p.school@det.nsw.edu.au","contact_form_url":"","website_url":"https://ambarvale-p.schools.nsw.gov.au","lat":-34.05,"lon":150.8333},{"sector":"independent","school_name":"Amity College - Auburn Campus","suburb":"Auburn","postcode":"2144","phone":"+61 2 8775 7600","public_email":"","contact_form_url":"","website_url":"https://www.amity.nsw.edu.au","lat":-33.85,"lon":151.0333},{"sector":"independent","school_name":"Amity College - Illawarra Campus","suburb":"Shellharbour","postcode":"2529","phone":"+61 2 4296 6000","public_email":"","contact_form_url":"","website_url":"https://www.amity.nsw.edu.au/","lat":-34.5814,"lon":150.8435},{"sector":"independent","school_name":"Amity College - Leppington Campus","suburb":"Leppington","postcode":"2179","phone":"+61 2 9765 2300","public_email":"","contact_form_url":"","website_url":"https://www.amity.nsw.edu.au/","lat":-33.9698,"lon":150.7967},{"sector":"independent","school_name":"Amity College - Prestons Campus","suburb":"Prestons","postcode":"2170","phone":"+61 2 8784 3111","public_email":"","contact_form_url":"","website_url":"https://www.amity.nsw.edu.au","lat":-33.9522,"lon":150.8995},{"sector":"government","school_name":"Anna Bay Public School","suburb":"Anna Bay","postcode":"2316","phone":"4982 1187","public_email":"annabay-p.school@det.nsw.edu.au","contact_form_url":"","website_url":"https://annabay-p.schools.nsw.gov.au","lat":-32.7858,"lon":152.0896},{"sector":"government","school_name":"Annandale North Public School","suburb":"Annandale","postcode":"2038","phone":"9660 3972","public_email":"annandalen-p.school@det.nsw.edu.au","contact_form_url":"","website_url":"https://annandalen-p.schools.nsw.gov.au","lat":-33.8833,"lon":151.1667},{"sector":"government","school_name":"Annandale Public School","suburb":"Annandale","postcode":"2038","phone":"9516 3711","public_email":"annandale-p.school@det.nsw.edu.au","contact_form_url":"","website_url":"https://annandale-p.schools.nsw.gov.au","lat":-33.8833,"lon":151.1667},{"sector":"government","school_name":"Annangrove Public School","suburb":"Annangrove","postcode":"2156","phone":"9679 1303","public_email":"annangrove-p.school@det.nsw.edu.au","contact_form_url":"","website_url":"https://annangrove-p.schools.nsw.gov.au","lat":-33.7,"lon":151.0},{"sector":"government","school_name":"Anson Street School","suburb":"Orange","postcode":"2800","phone":"6362 4563","public_email":"ansonst-s.school@det.nsw.edu.au","contact_form_url":"","website_url":"https://ansonst-s.schools.nsw.gov.au","lat":-33.2547,"lon":149.156},{"sector":"government","school_name":"Anzac Park Public School","suburb":"Cammeray","postcode":"2062","phone":"9922 3288","public_email":"anzacpark-p.school@det.nsw.edu.au","contact_form_url":"","website_url":"https://anzacpark-p.schools.nsw.gov.au","lat":-33.8213,"lon":151.2161},{"sector":"government","school_name":"Appin Public School","suburb":"Appin","postcode":"2560","phone":"4631 1220","public_email":"appin-p.school@det.nsw.edu.au","contact_form_url":"","website_url":"https://appin-p.schools.nsw.gov.au","lat":-34.05,"lon":150.8333},{"sector":"catholic","school_name":"Aquinas Catholic College","suburb":"Menai","postcode":"2234","phone":"(02) 9543 0188","public_email":"info@aquinasmenai.catholic.edu.au","contact_form_url":"","website_url":"https://aquinasmenai.syd.catholic.edu.au","lat":-34.0341,"lon":151.0119},{"sector":"government","school_name":"Arcadia Public School","suburb":"Arcadia","postcode":"2159","phone":"9653 1207","public_email":"arcadia-p.school@det.nsw.edu.au","contact_form_url":"","website_url":"https://arcadia-p.schools.nsw.gov.au","lat":-33.6155,"lon":151.0914},{"sector":"government","school_name":"Arcadia Vale Public School","suburb":"Arcadia Vale","postcode":"2283","phone":"4975 1181","public_email":"arcadiaval-p.school@det.nsw.edu.au","contact_form_url":"","website_url":"https://arcadiaval-p.schools.nsw.gov.au","lat":-33.0423,"lon":151.6116},{"sector":"independent","school_name":"Arden Anglican School","suburb":"Beecroft","postcode":"2119","phone":"+61 2 9484 1146","public_email":"contact@arden.nsw.edu.au","contact_form_url":"https://www.arden.nsw.edu.au/","website_url":"https://www.arden.nsw.edu.au","lat":-33.7587,"lon":151.0723},{"sector":"independent","school_name":"Arden Anglican School - Epping Campus","suburb":"Epping","postcode":"2121","phone":"+61 2 9869 2644","public_email":"contact@arden.nsw.edu.au","contact_form_url":"https://www.arden.nsw.edu.au/","website_url":"https://www.arden.nsw.edu.au","lat":-33.7594,"lon":151.0925},{"sector":"government","school_name":"Ardlethan Central School","suburb":"Ardlethan","postcode":"2665","phone":"6978 2046","public_email":"ardlethan-c.school@det.nsw.edu.au","contact_form_url":"","website_url":"https://ardlethan-c.schools.nsw.gov.au","lat":-34.3493,"lon":147.2218},{"sector":"government","school_name":"Argenton Public School","suburb":"Argenton","postcode":"2284","phone":"4958 1805","public_email":"argenton-p.school@det.nsw.edu.au","contact_form_url":"","website_url":"https://argenton-p.schools.nsw.gov.au","lat":-32.9806,"lon":151.6184},{"sector":"government","school_name":"Ariah Park Central School","suburb":"Ariah Park","postcode":"2665","phone":"6974 1105","public_email":"ariahpark-c.school@det.nsw.edu.au","contact_form_url":"","website_url":"https://ariahpark-c.schools.nsw.gov.au","lat":-34.3493,"lon":147.2218},{"sector":"independent","school_name":"Arise Christian College","suburb":"Metford","postcode":"2323","phone":"02 4933 7633","public_email":"office@arisecc.nsw.edu.au","contact_form_url":"https://www.arisecc.nsw.edu.au/","website_url":"https://www.maitlandcs.nsw.edu.au/arise-christian-college/","lat":-32.8305,"lon":151.5312},{"sector":"independent","school_name":"Arkana College","suburb":"Kingsgrove","postcode":"2208","phone":"+61 2 9502 3655","public_email":"","contact_form_url":"","website_url":"https://www.arkana.nsw.edu.au","lat":-33.9393,"lon":151.0993},{"sector":"government","school_name":"Armidale City Public School","suburb":"Armidale","postcode":"2350","phone":"6772 3420","public_email":"armidalec-p.school@det.nsw.edu.au","contact_form_url":"","website_url":"https://armidalec-p.schools.nsw.gov.au","lat":-30.6152,"lon":151.7679},{"sector":"government","school_name":"Armidale Secondary College","suburb":"Armidale","postcode":"2350","phone":"02 6776 7400","public_email":"armidale-s.school@det.nsw.edu.au","contact_form_url":"","website_url":"https://armidale-s.schools.nsw.gov.au","lat":-30.6152,"lon":151.7679},{"sector":"government","school_name":"Arncliffe Public School","suburb":"Arncliffe","postcode":"2205","phone":"9567 5060","public_email":"arncliffe-p.school@det.nsw.edu.au","contact_form_url":"","website_url":"https://arncliffe-p.schools.nsw.gov.au","lat":-33.9313,"lon":151.1522},{"sector":"government","school_name":"Arncliffe West Infants School","suburb":"Arncliffe","postcode":"2205","phone":"9567 7062","public_email":"arncliffew-p.school@det.nsw.edu.au","contact_form_url":"","website_url":"https://arncliffew-p.schools.nsw.gov.au","lat":-33.9313,"lon":151.1522},{"sector":"independent","school_name":"Arndell Anglican College","suburb":"Oakville","postcode":"2765","phone":"+61 2 4572 3633","public_email":"enquiries@arndell.nsw.edu.au","contact_form_url":"https://www.arndell.nsw.edu.au/search","website_url":"https://www.arndell.nsw.edu.au","lat":-33.5922,"lon":150.9198},{"sector":"government","school_name":"Arndell School","suburb":"North Ryde","postcode":"2113","phone":"9888 3737","public_email":"arndell-s.school@det.nsw.edu.au","contact_form_url":"","website_url":"https://arndell-s.schools.nsw.gov.au","lat":-33.7956,"lon":151.126},{"sector":"independent","school_name":"Arrahman College","suburb":"Austral","postcode":"2179","phone":"+61 2 8107 6000","public_email":"admin@arrahmancollege.nsw.edu.au","contact_form_url":"https://arrahmancollege.nsw.edu.au/","website_url":"https://www.arrahmancollege.nsw.edu.au","lat":-33.9698,"lon":150.7967},{"sector":"government","school_name":"Arranounbai School","suburb":"Frenchs Forest","postcode":"2086","phone":"9452 3168","public_email":"arranoun-s.school@det.nsw.edu.au","contact_form_url":"","website_url":"https://arranoun-s.schools.nsw.gov.au","lat":-33.7482,"lon":151.2232},{"sector":"government","school_name":"Artarmon Public School","suburb":"Artarmon","postcode":"2064","phone":"9411 1950","public_email":"artarmon-p.school@det.nsw.edu.au","contact_form_url":"","website_url":"https://artarmon-p.schools.nsw.gov.au","lat":-33.8167,"lon":151.1833},{"sector":"government","school_name":"Arthur Phillip High School","suburb":"Parramatta","postcode":"2150","phone":"8855 8100","public_email":"arthurphil-h.school@det.nsw.edu.au","contact_form_url":"","website_url":"https://arthurphil-h.schools.nsw.gov.au","lat":-33.8178,"lon":151.0035},{"sector":"independent","school_name":"Ascham School","suburb":"Edgecliff","postcode":"2027","phone":"+61 2 8356 7000","public_email":"office@ascham.nsw.edu.au","contact_form_url":"https://www.ascham.nsw.edu.au","website_url":"https://www.ascham.nsw.edu.au","lat":-33.8667,"lon":151.25},{"sector":"government","school_name":"Ashbury Public School","suburb":"Ashbury","postcode":"2193","phone":"9798 4509","public_email":"ashbury-p.school@det.nsw.edu.au","contact_form_url":"","website_url":"https://ashbury-p.schools.nsw.gov.au","lat":-33.8978,"lon":151.1196},{"sector":"government","school_name":"Ashcroft High School","suburb":"Ashcroft","postcode":"2168","phone":"9607 8011","public_email":"ashcroft-h.school@det.nsw.edu.au","contact_form_url":"","website_url":"https://ashcroft-h.schools.nsw.gov.au","lat":-33.9209,"lon":150.8847},{"sector":"government","school_name":"Ashcroft Public School","suburb":"Ashcroft","postcode":"2168","phone":"9607 8202","public_email":"ashcroft-p.school@det.nsw.edu.au","contact_form_url":"","website_url":"https://ashcroft-p.schools.nsw.gov.au","lat":-33.9209,"lon":150.8847},{"sector":"government","school_name":"Ashfield Boys High School","suburb":"Ashfield","postcode":"2131","phone":"9798 6620","public_email":"ashfieldbo-h.school@det.nsw.edu.au","contact_form_url":"","website_url":"https://ashfieldbo-h.schools.nsw.gov.au","lat":-33.8883,"lon":151.1227},{"sector":"government","school_name":"Ashfield Public School","suburb":"Ashfield","postcode":"2131","phone":"9798 4400","public_email":"ashfield-p.school@det.nsw.edu.au","contact_form_url":"","website_url":"https://ashfield-p.schools.nsw.gov.au","lat":-33.8883,"lon":151.1227},{"sector":"government","school_name":"Ashford Central School","suburb":"Ashford","postcode":"2361","phone":"6725 4101","public_email":"ashford-c.school@det.nsw.edu.au","contact_form_url":"","website_url":"https://ashford-c.schools.nsw.gov.au","lat":-29.0479,"lon":151.2757},{"sector":"government","school_name":"Ashmont Public School","suburb":"Wagga Wagga","postcode":"2650","phone":"6931 4944","public_email":"ashmont-p.school@det.nsw.edu.au","contact_form_url":"","website_url":"https://ashmont-p.schools.nsw.gov.au","lat":-35.4445,"lon":147.608},{"sector":"government","school_name":"Ashtonfield Public School","suburb":"Ashtonfield","postcode":"2323","phone":"4934 3584","public_email":"ashtonfield-p.school@det.nsw.edu.au","contact_form_url":"","website_url":"https://ashtonfield-p.schools.nsw.gov.au","lat":-32.8305,"lon":151.5312},{"sector":"independent","school_name":"Aspect Central Coast School (Main site)","suburb":"Terrigal","postcode":"2260","phone":"+61 2 4382 8800","public_email":"","contact_form_url":"https://www.autismspectrum.org.au/search","website_url":"https://www.autismspectrum.org.au","lat":-33.4155,"lon":151.4456},{"sector":"independent","school_name":"Aspect Central Coast School Senior College","suburb":"Terrigal","postcode":"2260","phone":"","public_email":"","contact_form_url":"","website_url":"","lat":-33.4155,"lon":151.4456},{"sector":"independent","school_name":"Aspect Central Coast School, East Gosford","suburb":"East Gosford","postcode":"2250","phone":"","public_email":"","contact_form_url":"","website_url":"","lat":-33.205,"lon":151.1759},{"sector":"independent","school_name":"Aspect Central Coast School, Tuggerah","suburb":"Tuggerah","postcode":"2259","phone":"","public_email":"","contact_form_url":"","website_url":"","lat":-33.2323,"lon":151.4367},{"sector":"independent","school_name":"Aspect Central Coast School, Woy Woy","suburb":"Woy Woy South","postcode":"2256","phone":"","public_email":"","contact_form_url":"","website_url":"","lat":-33.5444,"lon":151.3034},{"sector":"independent","school_name":"Aspect Hunter School (Main site)","suburb":"Thornton","postcode":"2322","phone":"+61 2 4922 5900","public_email":"","contact_form_url":"https://www.autismspectrum.org.au/search","website_url":"https://www.autismspectrum.org.au","lat":-32.7931,"lon":151.6769},{"sector":"independent","school_name":"Aspect Hunter School, Muswellbrook","suburb":"Muswellbrook","postcode":"2333","phone":"","public_email":"","contact_form_url":"","website_url":"","lat":-32.3333,"lon":150.5667},{"sector":"independent","school_name":"Aspect Macarthur School (Main site)","suburb":"Cobbitty","postcode":"2570","phone":"+61 2 4651 3901","public_email":"","contact_form_url":"http://www.autismspectrum.org.au/search","website_url":"http://www.autismspectrum.org.au","lat":-34.0799,"lon":150.57},{"sector":"independent","school_name":"Aspect Macarthur School, Airds","suburb":"Campbelltown","postcode":"2560","phone":"","public_email":"","contact_form_url":"","website_url":"","lat":-34.05,"lon":150.8333},{"sector":"independent","school_name":"Aspect Macarthur School, Campbelltown","suburb":"Campbelltown","postcode":"2560","phone":"","public_email":"","contact_form_url":"","website_url":"","lat":-34.05,"lon":150.8333},{"sector":"independent","school_name":"Aspect Macarthur School, Holsworthy","suburb":"Holsworthy","postcode":"2173","phone":"+61 2 4651 3901","public_email":"","contact_form_url":"http://www.autismspectrum.org.au/search","website_url":"http://www.autismspectrum.org.au","lat":-33.9544,"lon":150.9445},{"sector":"independent","school_name":"Aspect Macarthur School, Minto","suburb":"Minto","postcode":"2566","phone":"+61 2 4651 3901","public_email":"","contact_form_url":"http://www.autismspectrum.org.au/search","website_url":"http://www.autismspectrum.org.au","lat":-34.0224,"lon":150.8296},{"sector":"independent","school_name":"Aspect Macarthur School, Northern Rivers Coffs Harbour","suburb":"Coffs Harbour","postcode":"2450","phone":"+61 2 4651 3901","public_email":"","contact_form_url":"http://www.autismspectrum.org.au/search","website_url":"http://www.autismspectrum.org.au","lat":-30.1574,"lon":153.0958},{"sector":"independent","school_name":"Aspect Macarthur School, West Hoxton","suburb":"West Hoxton","postcode":"2171","phone":"+61 2 4651 3901","public_email":"","contact_form_url":"http://www.autismspectrum.org.au/search","website_url":"http://www.autismspectrum.org.au","lat":-33.8892,"lon":150.8514},{"sector":"independent","school_name":"Aspect Riverina School (Main site)","suburb":"Albury","postcode":"2640","phone":"+61 2 6057 3777","public_email":"","contact_form_url":"http://www.autismspectrum.org.au/search","website_url":"http://www.autismspectrum.org.au","lat":-36.0865,"lon":146.9091},{"sector":"independent","school_name":"Aspect Riverina School, Kiewa Street Albury","suburb":"Albury","postcode":"2640","phone":"+61 2 6040 6826","public_email":"","contact_form_url":"http://www.autismspectrum.org.au/search","website_url":"http://www.autismspectrum.org.au","lat":-36.0865,"lon":146.9091},{"sector":"independent","school_name":"Aspect Riverina School, Moresby Park Centre","suburb":"North Albury","postcode":"2640","phone":"","public_email":"","contact_form_url":"","website_url":"","lat":-36.0865,"lon":146.9091},{"sector":"independent","school_name":"Aspect Riverina School, North Albury","suburb":"Albury","postcode":"2640","phone":"+61 2 6040 6826","public_email":"","contact_form_url":"http://www.autismspectrum.org.au/search","website_url":"http://www.autismspectrum.org.au","lat":-36.0865,"lon":146.9091},{"sector":"independent","school_name":"Aspect Riverina School, Wagga","suburb":"Wagga Wagga","postcode":"2678","phone":"+61 2 6922 5167","public_email":"","contact_form_url":"http://www.autismspectrum.org.au/search","website_url":"http://www.autismspectrum.org.au","lat":-35.0608,"lon":147.3542},{"sector":"independent","school_name":"Aspect Riverina School, Wagga Wagga","suburb":"Kooringal","postcode":"2650","phone":"+61 2 6922 5167","public_email":"","contact_form_url":"http://www.autismspectrum.org.au/search","website_url":"http://www.autismspectrum.org.au","lat":-35.4445,"lon":147.608},{"sector":"independent","school_name":"Aspect South Coast School (Main site)","suburb":"Corrimal","postcode":"2518","phone":"+61 2 4285 2393","public_email":"","contact_form_url":"http://www.autismspectrum.org.au/search","website_url":"http://www.autismspectrum.org.au","lat":-34.3761,"lon":150.9108},{"sector":"independent","school_name":"Aspect South Coast School, Albion Park","suburb":"Albion Park","postcode":"2527","phone":"","public_email":"","contact_form_url":"","website_url":"","lat":-34.5713,"lon":150.7757},{"sector":"independent","school_name":"Aspect South Coast School, Bulli","suburb":"Bulli","postcode":"2516","phone":"","public_email":"","contact_form_url":"","website_url":"","lat":-34.3383,"lon":150.9135},{"sector":"independent","school_name":"Aspect South Coast School, Farmborough Heights","suburb":"Unanderra","postcode":"2526","phone":"","public_email":"","contact_form_url":"","website_url":"","lat":-34.4455,"lon":150.823},{"sector":"independent","school_name":"Aspect South Coast School, Saints Peter and Paul Kiama","suburb":"Kiama","postcode":"2533","phone":"","public_email":"","contact_form_url":"","website_url":"","lat":-34.6701,"lon":150.8231},{"sector":"independent","school_name":"Aspect South Coast School, Unanderra","suburb":"Unanderra","postcode":"2526","phone":"","public_email":"","contact_form_url":"","website_url":"","lat":-34.4455,"lon":150.823},{"sector":"independent","school_name":"Aspect South Coast School, Wollongong University","suburb":"Wollongong","postcode":"2522","phone":"","public_email":"","contact_form_url":"","website_url":"","lat":-34.5321,"lon":150.8196},{"sector":"independent","school_name":"Aspect South East Sydney School (Main site)","suburb":"Peakhurst Heights","postcode":"2210","phone":"+61 2 9534 4758","public_email":"","contact_form_url":"https://www.autismspectrum.org.au/search","website_url":"https://www.autismspectrum.org.au/","lat":-33.9827,"lon":151.0418},{"sector":"independent","school_name":"Aspect South East Sydney School, Croydon","suburb":"Croydon","postcode":"2132","phone":"+61 2 9534 4758","public_email":"","contact_form_url":"https://www.autismspectrum.org.au/search","website_url":"https://www.autismspectrum.org.au/","lat":-33.8833,"lon":151.1167},{"sector":"independent","school_name":"Aspect South East Sydney School, Loftus","suburb":"Loftus","postcode":"2232","phone":"","public_email":"","contact_form_url":"","website_url":"","lat":-34.0244,"lon":151.0386},{"sector":"independent","school_name":"Aspect South East Sydney School, Marrickville","suburb":"Marrickville","postcode":"2204","phone":"+61 2 9560 0249","public_email":"","contact_form_url":"http://www.autismspectrum.org.au/search","website_url":"http://www.autismspectrum.org.au","lat":-33.9074,"lon":151.1555},{"sector":"independent","school_name":"Aspect Vern Barnett School (Main site)","suburb":"Forestville","postcode":"2087","phone":"+61 2 9454 8359","public_email":"","contact_form_url":"","website_url":"https://www.autismspectrum.org.au/school/aspect-vern-barnett-school-0","lat":-33.7745,"lon":151.2203},{"sector":"independent","school_name":"Aspect Western Sydney School (Main site)","suburb":"Wetherill Park","postcode":"2164","phone":"+61 2 8786 3000","public_email":"","contact_form_url":"https://www.autismspectrum.org.au/search","website_url":"https://www.autismspectrum.org.au","lat":-33.8414,"lon":150.9605},{"sector":"independent","school_name":"Aspect Western Sydney School, Hills Shire","suburb":"Gables","postcode":"2765","phone":"","public_email":"","contact_form_url":"https://www.aspect.org.au/search","website_url":"https://www.aspect.org.au/our-services/going-to-school/hills-shire-school","lat":-33.5922,"lon":150.9198},{"sector":"independent","school_name":"Aspect Western Sydney School, Quakers Road, Marayong","suburb":"Marayong","postcode":"2148","phone":"","public_email":"","contact_form_url":"","website_url":"","lat":-33.7482,"lon":150.8927},{"sector":"independent","school_name":"Aspect Western Sydney School, St Andrews College Senior Campus","suburb":"Marayong","postcode":"2148","phone":"","public_email":"","contact_form_url":"","website_url":"","lat":-33.7482,"lon":150.8927},{"sector":"independent","school_name":"Aspect Western Sydney School, St Thomas Aquinas","suburb":"Springwood","postcode":"2777","phone":"","public_email":"","contact_form_url":"","website_url":"","lat":-33.6985,"lon":150.6346},{"sector":"government","school_name":"Asquith High School","suburb":"Asquith","postcode":"2077","phone":"9477 6411","public_email":"asquith-h.school@det.nsw.edu.au","contact_form_url":"","website_url":"https://asquith-h.schools.nsw.gov.au","lat":-33.7024,"lon":151.0993},{"sector":"government","school_name":"Asquith Public School","suburb":"Asquith","postcode":"2077","phone":"9477 1258","public_email":"asquith-p.school@det.nsw.edu.au","contact_form_url":"","website_url":"https://asquith-p.schools.nsw.gov.au","lat":-33.7024,"lon":151.0993},{"sector":"government","school_name":"Athelstane Public School","suburb":"Arncliffe","postcode":"2205","phone":"9567 3550","public_email":"athelstane-p.school@det.nsw.edu.au","contact_form_url":"","website_url":"https://athelstane-p.schools.nsw.gov.au","lat":-33.9313,"lon":151.1522},{"sector":"government","school_name":"Attunga Public School","suburb":"Attunga","postcode":"2345","phone":"6769 5554","public_email":"attunga-p.school@det.nsw.edu.au","contact_form_url":"","website_url":"https://attunga-p.schools.nsw.gov.au","lat":-30.8565,"lon":150.9038},{"sector":"government","school_name":"Auburn Girls High School","suburb":"Auburn","postcode":"2144","phone":"9649 6949","public_email":"auburng-h.school@det.nsw.edu.au","contact_form_url":"","website_url":"https://auburng-h.schools.nsw.gov.au/","lat":-33.85,"lon":151.0333},{"sector":"government","school_name":"Auburn North Public School","suburb":"Auburn","postcode":"2144","phone":"9748 1036","public_email":"auburnnth-p.school@det.nsw.edu.au","contact_form_url":"","website_url":"https://auburnnth-p.schools.nsw.gov.au","lat":-33.85,"lon":151.0333},{"sector":"government","school_name":"Auburn Public School","suburb":"Auburn","postcode":"2144","phone":"02 9646 2200","public_email":"auburn-p.school@det.nsw.edu.au","contact_form_url":"","website_url":"https://auburn-p.schools.nsw.gov.au","lat":-33.85,"lon":151.0333},{"sector":"government","school_name":"Auburn West Public School","suburb":"Auburn","postcode":"2144","phone":"9649 6774","public_email":"auburnwest-p.school@det.nsw.edu.au","contact_form_url":"","website_url":"https://auburnwest-p.schools.nsw.gov.au","lat":-33.85,"lon":151.0333},{"sector":"government","school_name":"Aurora College","suburb":"Lindfield","postcode":"2070","phone":"1300 287 629","public_email":"auroracoll-h.school@det.nsw.edu.au","contact_form_url":"","website_url":"https://aurora.schools.nsw.gov.au","lat":-33.7833,"lon":151.1667},{"sector":"independent","school_name":"Aurora Southern Highlands Steiner School","suburb":"Bowral","postcode":"2575","phone":"+61 2 4862 2300","public_email":"","contact_form_url":"","website_url":"https://www.aurorasteiner.nsw.edu.au","lat":-34.4274,"lon":150.484},{"sector":"government","school_name":"Austinmer Public School","suburb":"Austinmer","postcode":"2515","phone":"4267 1311","public_email":"austinmer-p.school@det.nsw.edu.au","contact_form_url":"","website_url":"https://austinmer-p.schools.nsw.gov.au","lat":-34.261,"lon":150.9695},{"sector":"government","school_name":"Austral Public School","suburb":"Austral","postcode":"2179","phone":"9606 0312","public_email":"austral-p.school@det.nsw.edu.au","contact_form_url":"","website_url":"https://austral-p.schools.nsw.gov.au","lat":-33.9698,"lon":150.7967},{"sector":"government","school_name":"Australia Street Infants School","suburb":"Newtown","postcode":"2042","phone":"9557 5377","public_email":"australist-p.school@det.nsw.edu.au","contact_form_url":"","website_url":"https://australist-p.schools.nsw.gov.au","lat":-33.9005,"lon":151.1731},{"sector":"independent","school_name":"Australian Christian College - Distance Education","suburb":"Riverstone","postcode":"2765","phone":"","public_email":"","contact_form_url":"","website_url":"https://www.acc.edu.au/distance-education/","lat":-33.5922,"lon":150.9198},{"sector":"independent","school_name":"Australian Christian College - Marsden Park","suburb":"Riverstone","postcode":"2765","phone":"02 9421 7111","public_email":"","contact_form_url":"","website_url":"http://marsdenpark.acc.edu.au/","lat":-33.5922,"lon":150.9198},{"sector":"independent","school_name":"Australian Christian College - Singleton","suburb":"Singleton","postcode":"2330","phone":"+61 2 6572 1011","public_email":"","contact_form_url":"","website_url":"http://singleton.acc.edu.au","lat":-32.6377,"lon":151.093},{"sector":"independent","school_name":"Australian International Academy, Kellyville","suburb":"North Kellyville","postcode":"2155","phone":"+61 2 8801 3100","public_email":"adminkellyville@aia.nsw.edu.au","contact_form_url":"https://www.aia.nsw.edu.au/","website_url":"https://www.aia.nsw.edu.au","lat":-33.6999,"lon":150.9411},{"sector":"independent","school_name":"Australian International Academy, Strathfield","suburb":"Strathfield","postcode":"2135","phone":"+61 2 9642 0104","public_email":"adminnsw@aia.nsw.edu.au","contact_form_url":"https://strathfield.aia.nsw.edu.au/","website_url":"https://strathfield.aia.nsw.edu.au/","lat":-33.881,"lon":151.0799},{"sector":"independent","school_name":"Australian Islamic College of Sydney","suburb":"Mount Druitt","postcode":"2770","phone":"+61 2 9933 6900","public_email":"info@aics.nsw.edu.au","contact_form_url":"https://www.aics.nsw.edu.au","website_url":"https://www.aics.nsw.edu.au","lat":-33.7441,"lon":150.8064},{"sector":"independent","school_name":"Australian Islamic College of Sydney Senior School","suburb":"Rooty Hill","postcode":"2766","phone":"","public_email":"info@aics.nsw.edu.au","contact_form_url":"https://www.aics.nsw.edu.au/","website_url":"https://www.aics.nsw.edu.au/","lat":-33.8063,"lon":150.8612},{"sector":"independent","school_name":"Australian Performing Arts Grammar School","suburb":"Glebe","postcode":"2037","phone":"02 9518 5123","public_email":"","contact_form_url":"","website_url":"http://www.apgs.nsw.edu.au","lat":-33.8788,"lon":151.1843},{"sector":"government","school_name":"Avalon Public School","suburb":"Avalon Beach","postcode":"2107","phone":"9973 1439","public_email":"avalon-p.school@det.nsw.edu.au","contact_form_url":"","website_url":"https://avalon-p.schools.nsw.gov.au","lat":-33.6342,"lon":151.3234},{"sector":"government","school_name":"Avoca Beach Public School","suburb":"Avoca Beach","postcode":"2251","phone":"4382 1416","public_email":"avocabch-p.school@det.nsw.edu.au","contact_form_url":"","website_url":"https://avocabch-p.schools.nsw.gov.au","lat":-33.4976,"lon":151.3808},{"sector":"independent","school_name":"Avondale School","suburb":"Cooranbong","postcode":"2265","phone":"+61 2 4977 0200","public_email":"admin@avondaleschool.nsw.edu.au","contact_form_url":"https://www.avondaleschool.nsw.edu.au/search","website_url":"https://www.avondaleschool.nsw.edu.au","lat":-33.0667,"lon":151.4167},{"sector":"government","school_name":"Awaba Public School","suburb":"Awaba","postcode":"2283","phone":"4959 2502","public_email":"awaba-p.school@det.nsw.edu.au","contact_form_url":"","website_url":"https://awaba-p.schools.nsw.gov.au","lat":-33.0423,"lon":151.6116},{"sector":"government","school_name":"Awabakal Environmental Education Centre","suburb":"Shortland","postcode":"2307","phone":"4944 8233","public_email":"awabakal-e.school@det.nsw.edu.au","contact_form_url":"","website_url":"https://awabakal-e.schools.nsw.gov.au/","lat":-32.8788,"lon":151.691},{"sector":"government","school_name":"Balarang Public School","suburb":"Oak Flats","postcode":"2529","phone":"4256 1846","public_email":"balarang-p.school@det.nsw.edu.au","contact_form_url":"","website_url":"https://balarang-p.schools.nsw.gov.au","lat":-34.5814,"lon":150.8435},{"sector":"government","school_name":"Bald Blair Public School","suburb":"Guyra","postcode":"2365","phone":"6779 1578","public_email":"baldblair-p.school@det.nsw.edu.au","contact_form_url":"","website_url":"https://baldblair-p.schools.nsw.gov.au","lat":-30.1333,"lon":151.8667},{"sector":"government","school_name":"Bald Face Public School","suburb":"Blakehurst","postcode":"2221","phone":"9546 1565","public_email":"baldface-p.school@det.nsw.edu.au","contact_form_url":"","website_url":"https://baldface-p.schools.nsw.gov.au","lat":-33.9867,"lon":151.1173},{"sector":"government","school_name":"Balgowlah Heights Public School","suburb":"Balgowlah","postcode":"2093","phone":"9948 2225","public_email":"balgowlaht-p.school@det.nsw.edu.au","contact_form_url":"","website_url":"https://balgowlaht-p.schools.nsw.gov.au","lat":-33.8066,"lon":151.2624},{"sector":"government","school_name":"Balgowlah North Public School","suburb":"North Balgowlah","postcode":"2093","phone":"9949 4499","public_email":"balgowlahn-p.school@det.nsw.edu.au","contact_form_url":"","website_url":"https://balgowlahn-p.schools.nsw.gov.au","lat":-33.8066,"lon":151.2624},{"sector":"government","school_name":"Balgownie Public School","suburb":"Balgownie","postcode":"2519","phone":"4284 4245","public_email":"balgownie-p.school@det.nsw.edu.au","contact_form_url":"","website_url":"https://balgownie-p.schools.nsw.gov.au","lat":-34.3887,"lon":150.8938},{"sector":"government","school_name":"Ballimore Public School","suburb":"Ballimore","postcode":"2830","phone":"6886 5151","public_email":"ballimore-p.school@det.nsw.edu.au","contact_form_url":"","website_url":"https://ballimore-p.schools.nsw.gov.au","lat":-32.2667,"lon":148.6833},{"sector":"government","school_name":"Ballina Coast High School","suburb":"Ballina","postcode":"2478","phone":"02 6681 0100","public_email":"ballinacoast-h.school@det.nsw.edu.au","contact_form_url":"","website_url":"https://ballina-h.schools.nsw.gov.au","lat":-28.8571,"lon":153.5874},{"sector":"government","school_name":"Ballina Public School","suburb":"Ballina","postcode":"2478","phone":"6686 2205","public_email":"ballina-p.school@det.nsw.edu.au","contact_form_url":"","website_url":"https://ballina-p.schools.nsw.gov.au","lat":-28.8571,"lon":153.5874},{"sector":"government","school_name":"Balmain Public School","suburb":"Balmain","postcode":"2041","phone":"9818 1177","public_email":"balmain-p.school@det.nsw.edu.au","contact_form_url":"","website_url":"https://balmain-p.schools.nsw.gov.au","lat":-33.8548,"lon":151.1833},{"sector":"government","school_name":"Balranald Central School","suburb":"Balranald","postcode":"2715","phone":"03 5020 2222","public_email":"balranald-c.school@det.nsw.edu.au","contact_form_url":"","website_url":"https://balranald-c.schools.nsw.gov.au","lat":-33.5036,"lon":143.3112},{"sector":"government","school_name":"Bangalow Public School","suburb":"Bangalow","postcode":"2479","phone":"6687 1434","public_email":"bangalow-p.school@det.nsw.edu.au","contact_form_url":"","website_url":"https://bangalow-p.schools.nsw.gov.au","lat":-28.7275,"lon":153.469},{"sector":"government","school_name":"Bangor Public School","suburb":"Bangor","postcode":"2234","phone":"9543 2244","public_email":"bangor-p.school@det.nsw.edu.au","contact_form_url":"","website_url":"https://bangor-p.schools.nsw.gov.au","lat":-34.0341,"lon":151.0119},{"sector":"government","school_name":"Banks Public School","suburb":"St Clair","postcode":"2759","phone":"9670 6506","public_email":"banks-p.school@det.nsw.edu.au","contact_form_url":"","website_url":"https://banks-p.schools.nsw.gov.au","lat":-33.813,"lon":150.7977},{"sector":"government","school_name":"Banksia Road Public School","suburb":"Greenacre","postcode":"2190","phone":"9707 3423","public_email":"banksiard-p.school@det.nsw.edu.au","contact_form_url":"","website_url":"https://banksiard-p.schools.nsw.gov.au","lat":-33.9003,"lon":151.0556},{"sector":"government","school_name":"Banksmeadow Public School","suburb":"Botany","postcode":"2019","phone":"9316 9608","public_email":"banksmeado-p.school@det.nsw.edu.au","contact_form_url":"","website_url":"https://banksmeado-p.schools.nsw.gov.au","lat":-33.9566,"lon":151.2096},{"sector":"government","school_name":"Bankstown Girls High School","suburb":"Bankstown","postcode":"2200","phone":"9709 6788","public_email":"bankstowng-h.school@det.nsw.edu.au","contact_form_url":"","website_url":"https://bankstowng-h.schools.nsw.gov.au","lat":-33.9196,"lon":151.0308},{"sector":"government","school_name":"Bankstown Hospital School","suburb":"Bankstown","postcode":"2200","phone":"9722 8063","public_email":"banksthos-s.school@det.nsw.edu.au","contact_form_url":"","website_url":"https://banksthos-s.schools.nsw.gov.au","lat":-33.9196,"lon":151.0308},{"sector":"government","school_name":"Bankstown North Public School","suburb":"Bankstown","postcode":"2200","phone":"9709 5506","public_email":"bankstownn-p.school@det.nsw.edu.au","contact_form_url":"","website_url":"https://bankstownn-p.schools.nsw.gov.au","lat":-33.9196,"lon":151.0308},{"sector":"government","school_name":"Bankstown Public School","suburb":"Bankstown","postcode":"2200","phone":"9796 2120","public_email":"bankstown-p.school@det.nsw.edu.au","contact_form_url":"","website_url":"https://bankstown-p.schools.nsw.gov.au","lat":-33.9196,"lon":151.0308},{"sector":"government","school_name":"Bankstown Senior College","suburb":"Bankstown","postcode":"2200","phone":"9707 3288","public_email":"bankstowns-h.school@det.nsw.edu.au","contact_form_url":"","website_url":"https://bankstowns-h.schools.nsw.gov.au","lat":-33.9196,"lon":151.0308},{"sector":"government","school_name":"Bankstown South Infants School","suburb":"Bankstown","postcode":"2200","phone":"9790 6176","public_email":"bankstowsi-p.school@det.nsw.edu.au","contact_form_url":"","website_url":"https://bankstowsi-p.schools.nsw.gov.au","lat":-33.9196,"lon":151.0308},{"sector":"government","school_name":"Bankstown West Public School","suburb":"Bankstown","postcode":"2200","phone":"9790 6158","public_email":"bankstownw-p.school@det.nsw.edu.au","contact_form_url":"","website_url":"https://bankstownw-p.schools.nsw.gov.au","lat":-33.9196,"lon":151.0308},{"sector":"government","school_name":"Banora Point High School","suburb":"Banora Point","postcode":"2486","phone":"07 5513 1960","public_email":"banorapnt-h.school@det.nsw.edu.au","contact_form_url":"","website_url":"https://banorapnt-h.schools.nsw.gov.au","lat":-28.2383,"lon":153.5008},{"sector":"government","school_name":"Banora Point Public School","suburb":"Banora Point","postcode":"2486","phone":"07 5524 1444","public_email":"banorapt-p.school@det.nsw.edu.au","contact_form_url":"","website_url":"https://banorapt-p.schools.nsw.gov.au","lat":-28.2383,"lon":153.5008},{"sector":"government","school_name":"Baradine Central School","suburb":"Baradine","postcode":"2396","phone":"6843 1805","public_email":"baradine-c.school@det.nsw.edu.au","contact_form_url":"","website_url":"https://baradine-c.schools.nsw.gov.au","lat":-31.1467,"lon":148.9934},{"sector":"government","school_name":"Bardia Public School","suburb":"Bardia","postcode":"2565","phone":"9605 2459","public_email":"bardia-p.school@det.nsw.edu.au","contact_form_url":"","website_url":"https://bardia-p.schools.nsw.gov.au","lat":-34.0,"lon":150.8667},{"sector":"government","school_name":"Bardwell Park Infants School","suburb":"Bardwell Park","postcode":"2207","phone":"9567 8754","public_email":"bardwelpki-p.school@det.nsw.edu.au","contact_form_url":"","website_url":"https://bardwelpki-p.schools.nsw.gov.au","lat":-33.9353,"lon":151.1257},{"sector":"government","school_name":"Barellan Central School","suburb":"Barellan","postcode":"2665","phone":"6963 9202","public_email":"barellan-c.school@det.nsw.edu.au","contact_form_url":"","website_url":"https://barellan-c.schools.nsw.gov.au","lat":-34.3493,"lon":147.2218},{"sector":"government","school_name":"Bargo Public School","suburb":"Bargo","postcode":"2574","phone":"4684 1396","public_email":"bargo-p.school@det.nsw.edu.au","contact_form_url":"","website_url":"https://bargo-p.schools.nsw.gov.au","lat":-34.293,"lon":150.5781},{"sector":"government","school_name":"Barham High School","suburb":"Barham","postcode":"2732","phone":"03 5453 2322","public_email":"barham-h.school@det.nsw.edu.au","contact_form_url":"","website_url":"https://barham-h.schools.nsw.gov.au","lat":-35.5618,"lon":144.2684},{"sector":"government","school_name":"Barham Public School","suburb":"Barham","postcode":"2732","phone":"03 5453 2133","public_email":"barham-p.school@det.nsw.edu.au","contact_form_url":"","website_url":"https://barham-p.schools.nsw.gov.au","lat":-35.5618,"lon":144.2684},{"sector":"independent","school_name":"Barker College","suburb":"Hornsby","postcode":"2077","phone":"+61 2 8438 7999","public_email":"reception@barker.nsw.edu.au","contact_form_url":"http://www.barker.nsw.edu.au/search-result/","website_url":"http://www.barker.nsw.edu.au","lat":-33.7024,"lon":151.0993},{"sector":"independent","school_name":"Barker College - Waitara Campus","suburb":"Waitara","postcode":"2077","phone":"02 9847 8399","public_email":"reception@barker.nsw.edu.au","contact_form_url":"http://www.barker.nsw.edu.au/search-result/","website_url":"http://www.barker.nsw.edu.au","lat":-33.7024,"lon":151.0993},{"sector":"government","school_name":"Barkers Vale Public School","suburb":"Wadeville","postcode":"2474","phone":"6689 7202","public_email":"barkersval-p.school@det.nsw.edu.au","contact_form_url":"","website_url":"https://barkersval-p.schools.nsw.gov.au","lat":-28.5772,"lon":152.761},{"sector":"government","school_name":"Barmedman Public School","suburb":"Barmedman","postcode":"2668","phone":"6976 2128","public_email":"barmedman-p.school@det.nsw.edu.au","contact_form_url":"","website_url":"https://barmedman-p.schools.nsw.gov.au","lat":-34.1449,"lon":147.3873},{"sector":"government","school_name":"Barnier Public School","suburb":"Quakers Hill","postcode":"2763","phone":"9837 1600","public_email":"barnier-p.school@det.nsw.edu.au","contact_form_url":"","website_url":"https://barnier-p.schools.nsw.gov.au","lat":-33.7333,"lon":150.8833},{"sector":"government","school_name":"Barnsley Public School","suburb":"Barnsley","postcode":"2278","phone":"4953 2976","public_email":"barnsley-p.school@det.nsw.edu.au","contact_form_url":"","website_url":"https://barnsley-p.schools.nsw.gov.au","lat":-32.9341,"lon":151.556},{"sector":"government","school_name":"Barooga Public School","suburb":"Barooga","postcode":"3644","phone":"03 5873 4242","public_email":"barooga-p.school@det.nsw.edu.au","contact_form_url":"","website_url":"https://barooga-p.schools.nsw.gov.au","lat":-35.906,"lon":145.6958},{"sector":"government","school_name":"Barraba Central School","suburb":"Barraba","postcode":"2347","phone":"6782 1104","public_email":"barraba-c.school@det.nsw.edu.au","contact_form_url":"","website_url":"https://barraba-c.schools.nsw.gov.au","lat":-30.2195,"lon":150.7882},{"sector":"government","school_name":"Barrack Heights Public School","suburb":"Barrack Heights","postcode":"2528","phone":"4296 4222","public_email":"barrackht-p.school@det.nsw.edu.au","contact_form_url":"","website_url":"https://barrackht-p.schools.nsw.gov.au","lat":-34.5626,"lon":150.8709},{"sector":"government","school_name":"Barramurra Public School","suburb":"Oran Park","postcode":"2570","phone":"02 4645 3800","public_email":"barramurra-p.school@det.nsw.edu.au","contact_form_url":"","website_url":"https://barramurra-p.schools.nsw.gov.au","lat":-34.0799,"lon":150.57},{"sector":"government","school_name":"Barrenjoey High School","suburb":"Avalon","postcode":"2107","phone":"9918 8811","public_email":"barrenjoey-h.school@det.nsw.edu.au","contact_form_url":"","website_url":"https://barrenjoey-h.schools.nsw.gov.au","lat":-33.6342,"lon":151.3234},{"sector":"independent","school_name":"Barrenjoey Montessori School","suburb":"Avalon","postcode":"2107","phone":"02 9973 1422","public_email":"info@bms.nsw.edu.au","contact_form_url":"http://www.barrenjoeymontessori.com.au/contact","website_url":"http://www.barrenjoeymontessori.com.au","lat":-33.6342,"lon":151.3234},{"sector":"government","school_name":"Barrington Public School","suburb":"Barrington","postcode":"2422","phone":"6558 4258","public_email":"barrington-p.school@det.nsw.edu.au","contact_form_url":"","website_url":"https://barrington-p.schools.nsw.gov.au","lat":-32.0177,"lon":152.0269},{"sector":"government","school_name":"Barwon Learning Centre","suburb":"Moree","postcode":"2400","phone":"6751 1573","public_email":"barwonlc-s.school@det.nsw.edu.au","contact_form_url":"","website_url":"https://barwonlc-s.schools.nsw.gov.au","lat":-29.4628,"lon":149.8416},{"sector":"government","school_name":"Baryulgil Public School","suburb":"Baryulgil","postcode":"2460","phone":"6647 2124","public_email":"baryulgil-p.school@det.nsw.edu.au","contact_form_url":"","website_url":"https://baryulgil-p.schools.nsw.gov.au","lat":-28.4277,"lon":153.378},{"sector":"government","school_name":"Bass High School","suburb":"Bass Hill","postcode":"2197","phone":"9726 3644","public_email":"bass-h.school@det.nsw.edu.au","contact_form_url":"","website_url":"https://bass-h.schools.nsw.gov.au","lat":-33.8986,"lon":150.9954},{"sector":"government","school_name":"Bass Hill Public School","suburb":"Bass Hill","postcode":"2197","phone":"9644 3431","public_email":"basshill-p.school@det.nsw.edu.au","contact_form_url":"","website_url":"https://basshill-p.schools.nsw.gov.au","lat":-33.8986,"lon":150.9954},{"sector":"government","school_name":"Bateau Bay Public School","suburb":"Bateau Bay","postcode":"2261","phone":"4332 8000","public_email":"bateaubay-p.school@det.nsw.edu.au","contact_form_url":"","website_url":"https://bateaubay-p.schools.nsw.gov.au","lat":-33.35,"lon":151.4333},{"sector":"government","school_name":"Batemans Bay High School","suburb":"Batehaven","postcode":"2536","phone":"4478 3600","public_email":"batemansba-h.school@det.nsw.edu.au","contact_form_url":"","website_url":"https://batemansba-h.schools.nsw.gov.au","lat":-35.637,"lon":150.3036},{"sector":"government","school_name":"Batemans Bay Public School","suburb":"Surfside","postcode":"2536","phone":"4472 4059","public_email":"batemansba-p.school@det.nsw.edu.au","contact_form_url":"","website_url":"https://batemansba-p.schools.nsw.gov.au","lat":-35.637,"lon":150.3036},{"sector":"government","school_name":"Bates Drive School","suburb":"Kareela","postcode":"2232","phone":"9521 6049","public_email":"batesdrive-s.school@det.nsw.edu.au","contact_form_url":"","website_url":"https://batesdrive-s.schools.nsw.gov.au","lat":-34.0244,"lon":151.0386},{"sector":"government","school_name":"Bathurst Public School","suburb":"Bathurst","postcode":"2795","phone":"6331 3923","public_email":"bathurst-p.school@det.nsw.edu.au","contact_form_url":"","website_url":"https://bathurst-p.schools.nsw.gov.au","lat":-33.4229,"lon":149.5328},{"sector":"government","school_name":"Bathurst South Public School","suburb":"Bathurst","postcode":"2795","phone":"6331 1297","public_email":"bathursts-p.school@det.nsw.edu.au","contact_form_url":"","website_url":"https://bathursts-p.schools.nsw.gov.au","lat":-33.4229,"lon":149.5328},{"sector":"government","school_name":"Bathurst West Public School","suburb":"Bathurst","postcode":"2795","phone":"6331 1142","public_email":"bathurstw-p.school@det.nsw.edu.au","contact_form_url":"","website_url":"https://bathurstw-p.schools.nsw.gov.au","lat":-33.4229,"lon":149.5328},{"sector":"government","school_name":"Batlow Central School","suburb":"Batlow","postcode":"2730","phone":"6949 1208","public_email":"batlow-c.school@det.nsw.edu.au","contact_form_url":"","website_url":"https://batlow-c.schools.nsw.gov.au","lat":-35.5494,"lon":148.0982},{"sector":"government","school_name":"Baulkham Hills High School","suburb":"Baulkham Hills","postcode":"2153","phone":"9639 8699","public_email":"baulkham-h.school@det.nsw.edu.au","contact_form_url":"","website_url":"https://baulkham-h.schools.nsw.gov.au","lat":-33.7588,"lon":150.9929},{"sector":"government","school_name":"Baulkham Hills North Public School","suburb":"Baulkham Hills","postcode":"2153","phone":"9639 6936","public_email":"baulkhamn-p.school@det.nsw.edu.au","contact_form_url":"","website_url":"https://baulkhamn-p.schools.nsw.gov.au","lat":-33.7588,"lon":150.9929},{"sector":"government","school_name":"Bayanami Public School","suburb":"Parramatta","postcode":"2150","phone":"02 9890 8169","public_email":"bayanami-p.school@det.nsw.edu.au","contact_form_url":"","website_url":"https://bayanami-p.schools.nsw.gov.au","lat":-33.8178,"lon":151.0035},{"sector":"government","school_name":"Bayside High School","suburb":"Kogarah","postcode":"2217","phone":"02 8566 2200","public_email":"bayside-h.school@det.nsw.edu.au","contact_form_url":"","website_url":"https://bayside-h.schools.nsw.gov.au/","lat":-33.9795,"lon":151.1212},{"sector":"government","school_name":"Beacon Hill Public School","suburb":"Beacon Hill","postcode":"2100","phone":"9451 6328","public_email":"beaconhill-p.school@det.nsw.edu.au","contact_form_url":"","website_url":"https://beaconhill-p.schools.nsw.gov.au","lat":-33.7666,"lon":151.2498},{"sector":"government","school_name":"Beaumont Hills Public School","suburb":"Beaumont Hills","postcode":"2155","phone":"8824 6470","public_email":"beaumonthi-p.school@det.nsw.edu.au","contact_form_url":"","website_url":"https://beaumonthi-p.schools.nsw.gov.au","lat":-33.6999,"lon":150.9411},{"sector":"government","school_name":"Beaumont Road Public School","suburb":"Killara","postcode":"2071","phone":"9498 3607","public_email":"beaumontrd-p.school@det.nsw.edu.au","contact_form_url":"","website_url":"https://beaumontrd-p.schools.nsw.gov.au","lat":-33.766,"lon":151.1621},{"sector":"government","school_name":"Beauty Point Public School","suburb":"Mosman","postcode":"2088","phone":"9969 4260","public_email":"beautypt-p.school@det.nsw.edu.au","contact_form_url":"","website_url":"https://beautypt-p.schools.nsw.gov.au","lat":-33.839,"lon":151.2396},{"sector":"catholic","school_name":"Bede Polding College","suburb":"South Windsor","postcode":"2756","phone":"(02) 4560 2900","public_email":"bedepolding@parra.catholic.edu.au","contact_form_url":"","website_url":"https://www.bedepoldingwindsor.catholic.edu.au","lat":-33.6586,"lon":150.8108},{"sector":"government","school_name":"Bedgerabong Public School","suburb":"Bedgerabong","postcode":"2871","phone":"6857 1185","public_email":"bedgerebon-p.school@det.nsw.edu.au","contact_form_url":"","website_url":"https://bedgerebon-p.schools.nsw.gov.au","lat":-33.2652,"lon":147.3846},{"sector":"government","school_name":"Beechwood Public School","suburb":"Wauchope","postcode":"2446","phone":"6585 6136","public_email":"beechwood-p.school@det.nsw.edu.au","contact_form_url":"","website_url":"https://beechwood-p.schools.nsw.gov.au","lat":-31.3485,"lon":152.3346},{"sector":"government","school_name":"Beecroft Public School","suburb":"Beecroft","postcode":"2119","phone":"9484 8844","public_email":"beecroft-p.school@det.nsw.edu.au","contact_form_url":"","website_url":"https://beecroft-p.schools.nsw.gov.au","lat":-33.7587,"lon":151.0723},{"sector":"government","school_name":"Beelbangera Public School","suburb":"Beelbangera","postcode":"2680","phone":"6963 5368","public_email":"beelbanger-p.school@det.nsw.edu.au","contact_form_url":"","website_url":"https://beelbanger-p.schools.nsw.gov.au","lat":-34.2885,"lon":146.0509},{"sector":"government","school_name":"Bega High School","suburb":"Bega","postcode":"2550","phone":"6492 9000","public_email":"bega-h.school@det.nsw.edu.au","contact_form_url":"","website_url":"https://bega-h.schools.nsw.gov.au","lat":-36.6969,"lon":149.8929},{"sector":"government","school_name":"Bega Valley Public School","suburb":"Bega","postcode":"2550","phone":"6492 1280","public_email":"bega-p.school@det.nsw.edu.au","contact_form_url":"","website_url":"https://bega-p.schools.nsw.gov.au","lat":-36.6969,"lon":149.8929},{"sector":"government","school_name":"Belair Public School","suburb":"Adamstown","postcode":"2289","phone":"4952 1735","public_email":"belair-p.school@det.nsw.edu.au","contact_form_url":"","website_url":"https://belair-p.schools.nsw.gov.au","lat":-32.9428,"lon":151.6958},{"sector":"government","school_name":"Bella Vista Public School","suburb":"Bella Vista","postcode":"2153","phone":"02 8814 1386","public_email":"bellavista-p.school@det.nsw.edu.au","contact_form_url":"","website_url":"https://bellavista-p.schools.nsw.gov.au","lat":-33.7588,"lon":150.9929},{"sector":"government","school_name":"Bellambi Public School","suburb":"Bellambi","postcode":"2518","phone":"4284 8666","public_email":"bellambi-p.school@det.nsw.edu.au","contact_form_url":"","website_url":"https://bellambi-p.schools.nsw.gov.au","lat":-34.3761,"lon":150.9108},{"sector":"government","school_name":"Bellata Public School","suburb":"Bellata","postcode":"2397","phone":"6793 7514","public_email":"bellata-p.school@det.nsw.edu.au","contact_form_url":"","website_url":"https://bellata-p.schools.nsw.gov.au","lat":-29.9191,"lon":149.7889},{"sector":"government","school_name":"Bellbird Public School","suburb":"Bellbird","postcode":"2325","phone":"4990 2331","public_email":"bellbird-p.school@det.nsw.edu.au","contact_form_url":"","website_url":"https://bellbird-p.schools.nsw.gov.au","lat":-32.8887,"lon":151.2832},{"sector":"government","school_name":"Bellbrook Public School","suburb":"Bellbrook","postcode":"2440","phone":"6567 2049","public_email":"bellbrook-p.school@det.nsw.edu.au","contact_form_url":"","website_url":"https://bellbrook-p.schools.nsw.gov.au","lat":-31.1332,"lon":152.7514},{"sector":"government","school_name":"Bellevue Hill Public School","suburb":"Bellevue Hill","postcode":"2023","phone":"9389 3928","public_email":"bellevuehi-p.school@det.nsw.edu.au","contact_form_url":"","website_url":"https://bellevuehi-p.schools.nsw.gov.au/","lat":-33.879,"lon":151.251},{"sector":"independent","school_name":"Bellfield College","suburb":"Rossmore","postcode":"2557","phone":"+61 2 9606 2666","public_email":"","contact_form_url":"","website_url":"https://www.bellfield.nsw.edu.au","lat":-33.9405,"lon":150.7728},{"sector":"independent","school_name":"Bellfield College, Rooty Hill Campus","suburb":"Rooty Hill","postcode":"2766","phone":"+61 2 9606 2666","public_email":"","contact_form_url":"","website_url":"https://www.bellfield.nsw.edu.au","lat":-33.8063,"lon":150.8612},{"sector":"government","school_name":"Bellingen High School","suburb":"Bellingen","postcode":"2454","phone":"6655 1315","public_email":"bellingen-h.school@det.nsw.edu.au","contact_form_url":"","website_url":"https://bellingen-h.schools.nsw.gov.au","lat":-30.4055,"lon":152.9515},{"sector":"government","school_name":"Bellingen Public School","suburb":"Bellingen","postcode":"2454","phone":"6655 1147","public_email":"bellingen-p.school@det.nsw.edu.au","contact_form_url":"","website_url":"https://bellingen-p.schools.nsw.gov.au","lat":-30.4055,"lon":152.9515},{"sector":"government","school_name":"Belltrees Public School","suburb":"Belltrees","postcode":"2337","phone":"6546 1148","public_email":"belltrees-p.school@det.nsw.edu.au","contact_form_url":"","website_url":"https://belltrees-p.schools.nsw.gov.au","lat":-31.9607,"lon":150.9914},{"sector":"independent","school_name":"Belmont Christian College","suburb":"Belmont North","postcode":"2280","phone":"02 4922 8300","public_email":"","contact_form_url":"","website_url":"http://www.bcc.nsw.edu.au/web/","lat":-33.0493,"lon":151.6569},{"sector":"government","school_name":"Belmont High School","suburb":"Belmont","postcode":"2280","phone":"4945 0600","public_email":"belmont-h.school@det.nsw.edu.au","contact_form_url":"","website_url":"https://belmont-h.schools.nsw.gov.au","lat":-33.0493,"lon":151.6569},{"sector":"government","school_name":"Belmont North Public School","suburb":"Belmont North","postcode":"2280","phone":"4945 4861","public_email":"belmontnth-p.school@det.nsw.edu.au","contact_form_url":"","website_url":"https://belmontnth-p.schools.nsw.gov.au","lat":-33.0493,"lon":151.6569},{"sector":"government","school_name":"Belmont Public School","suburb":"Belmont","postcode":"2280","phone":"4945 4858","public_email":"belmont-p.school@det.nsw.edu.au","contact_form_url":"","website_url":"https://belmont-p.schools.nsw.gov.au","lat":-33.0493,"lon":151.6569},{"sector":"government","school_name":"Belmore Boys High School","suburb":"Belmore","postcode":"2192","phone":"9758 2800","public_email":"belmoreboy-h.school@det.nsw.edu.au","contact_form_url":"","website_url":"https://belmoreboy-h.schools.nsw.gov.au","lat":-33.919,"lon":151.0894},{"sector":"government","school_name":"Belmore North Public School","suburb":"Belmore","postcode":"2192","phone":"9750 0652","public_email":"belmorenth-p.school@det.nsw.edu.au","contact_form_url":"","website_url":"https://belmorenth-p.schools.nsw.gov.au","lat":-33.919,"lon":151.0894},{"sector":"government","school_name":"Belmore South Public School","suburb":"Belmore","postcode":"2192","phone":"9759 4388","public_email":"belmoresth-p.school@det.nsw.edu.au","contact_form_url":"","website_url":"https://belmoresth-p.schools.nsw.gov.au","lat":-33.919,"lon":151.0894},{"sector":"government","school_name":"Belrose Public School","suburb":"Belrose","postcode":"2085","phone":"9451 6203","public_email":"belrose-p.school@det.nsw.edu.au","contact_form_url":"","website_url":"https://belrose-p.schools.nsw.gov.au","lat":-33.7413,"lon":151.2056},{"sector":"government","school_name":"Bemboka Public School","suburb":"Bemboka","postcode":"2550","phone":"6493 0229","public_email":"bemboka-p.school@det.nsw.edu.au","contact_form_url":"","website_url":"https://bemboka-p.schools.nsw.gov.au","lat":-36.6969,"lon":149.8929},{"sector":"government","school_name":"Ben Venue Public School","suburb":"Armidale","postcode":"2350","phone":"6772 4263","public_email":"benvenue-p.school@det.nsw.edu.au","contact_form_url":"","website_url":"https://benvenue-p.schools.nsw.gov.au","lat":-30.6152,"lon":151.7679},{"sector":"government","school_name":"Bendemeer Public School","suburb":"Bendemeer","postcode":"2355","phone":"6769 6532","public_email":"bendemeer-p.school@det.nsw.edu.au","contact_form_url":"","website_url":"https://bendemeer-p.schools.nsw.gov.au","lat":-30.7384,"lon":151.0513},{"sector":"government","school_name":"Bennett Road Public School","suburb":"Colyton","postcode":"2760","phone":"9623 2018","public_email":"bennettrd-p.school@det.nsw.edu.au","contact_form_url":"","website_url":"https://bennettrd-p.schools.nsw.gov.au","lat":-33.7328,"lon":150.791},{"sector":"government","school_name":"Berala Public School","suburb":"Berala","postcode":"2141","phone":"9649 7146","public_email":"berala-p.school@det.nsw.edu.au","contact_form_url":"","website_url":"https://berala-p.schools.nsw.gov.au","lat":-33.8644,"lon":151.0397},{"sector":"government","school_name":"Beresfield Public School","suburb":"Beresfield","postcode":"2322","phone":"4966 1146","public_email":"beresfield-p.school@det.nsw.edu.au","contact_form_url":"","website_url":"https://beresfield-p.schools.nsw.gov.au","lat":-32.7931,"lon":151.6769},{"sector":"government","school_name":"Beresford Road Public School","suburb":"Greystanes","postcode":"2145","phone":"9896 2644","public_email":"beresfdrd-p.school@det.nsw.edu.au","contact_form_url":"","website_url":"https://beresfdrd-p.schools.nsw.gov.au","lat":-33.804,"lon":150.9554},{"sector":"government","school_name":"Berinba Public School","suburb":"Yass","postcode":"2582","phone":"6226 2110","public_email":"berinba-p.school@det.nsw.edu.au","contact_form_url":"","website_url":"https://berinba-p.schools.nsw.gov.au","lat":-34.9167,"lon":148.8167},{"sector":"government","school_name":"Berkeley Public School","suburb":"Berkeley","postcode":"2506","phone":"4271 1171","public_email":"berkeley-p.school@det.nsw.edu.au","contact_form_url":"","website_url":"https://berkeley-p.schools.nsw.gov.au","lat":-34.4833,"lon":150.85},{"sector":"government","school_name":"Berkeley Vale Public School","suburb":"Berkeley Vale","postcode":"2261","phone":"4388 1796","public_email":"berkeleyva-p.school@det.nsw.edu.au","contact_form_url":"","website_url":"https://berkeleyva-p.schools.nsw.gov.au","lat":-33.35,"lon":151.4333},{"sector":"government","school_name":"Berkeley West Public School","suburb":"Berkeley","postcode":"2506","phone":"4271 1478","public_email":"berkeleyw-p.school@det.nsw.edu.au","contact_form_url":"","website_url":"https://berkeleyw-p.schools.nsw.gov.au","lat":-34.4833,"lon":150.85},{"sector":"government","school_name":"Bermagui Public School","suburb":"Bermagui","postcode":"2546","phone":"6493 4271","public_email":"bermagui-p.school@det.nsw.edu.au","contact_form_url":"","website_url":"https://bermagui-p.schools.nsw.gov.au","lat":-36.2036,"lon":150.1153},{"sector":"government","school_name":"Berowra Public School","suburb":"Berowra","postcode":"2081","phone":"9456 1319","public_email":"berowra-p.school@det.nsw.edu.au","contact_form_url":"","website_url":"https://berowra-p.schools.nsw.gov.au","lat":-33.6208,"lon":151.1509},{"sector":"government","school_name":"Berridale Public School","suburb":"Berridale","postcode":"2628","phone":"6456 3228","public_email":"berridale-p.school@det.nsw.edu.au","contact_form_url":"","website_url":"https://berridale-p.schools.nsw.gov.au","lat":-36.2322,"lon":148.6684},{"sector":"government","school_name":"Berrigan Public School","suburb":"Berrigan","postcode":"2712","phone":"03 5885 2209","public_email":"berrigan-p.school@det.nsw.edu.au","contact_form_url":"","website_url":"https://berrigan-p.schools.nsw.gov.au","lat":-35.6588,"lon":145.8114},{"sector":"government","school_name":"Berrima Public School","suburb":"Berrima","postcode":"2577","phone":"4877 1262","public_email":"berrima-p.school@det.nsw.edu.au","contact_form_url":"","website_url":"https://berrima-p.schools.nsw.gov.au","lat":-34.6504,"lon":150.6487},{"sector":"government","school_name":"Berry Public School","suburb":"Berry","postcode":"2535","phone":"4464 1158","public_email":"berry-p.school@det.nsw.edu.au","contact_form_url":"","website_url":"https://berry-p.schools.nsw.gov.au","lat":-34.8167,"lon":150.6667},{"sector":"government","school_name":"Bert Oldfield Public School","suburb":"Seven Hills","postcode":"2147","phone":"9622 2122","public_email":"bertoldfie-p.school@det.nsw.edu.au","contact_form_url":"","website_url":"https://bertoldfie-p.schools.nsw.gov.au","lat":-33.7833,"lon":150.9333},{"sector":"catholic","school_name":"Bethany Catholic Primary School","suburb":"Glenmore Park","postcode":"2745","phone":"(02) 4723 3700","public_email":"bethany@parra.catholic.edu.au","contact_form_url":"","website_url":"https://www.bethanyglenmorepark.catholic.edu.au","lat":-33.8658,"lon":150.6402},{"sector":"catholic","school_name":"Bethany College","suburb":"Hurstville","postcode":"2220","phone":"(02) 8566 0711","public_email":"info@bethanyhurstville.catholic.edu.au","contact_form_url":"","website_url":"https://bethanyhurstville.syd.catholic.edu.au","lat":-33.9799,"lon":151.0903},{"sector":"independent","school_name":"Bethel Christian School","suburb":"Mount Druitt","postcode":"2770","phone":"02 9625 4949","public_email":"admin@bethel.nsw.edu.au","contact_form_url":"https://www.bethel.nsw.edu.au/bcs-contact-us","website_url":"https://www.bethel.nsw.edu.au","lat":-33.7441,"lon":150.8064},{"sector":"government","school_name":"Beverley Park School","suburb":"Campbelltown","postcode":"2560","phone":"4625 1118","public_email":"beverleypk-s.school@det.nsw.edu.au","contact_form_url":"","website_url":"https://beverleypk-s.schools.nsw.gov.au","lat":-34.05,"lon":150.8333},{"sector":"government","school_name":"Beverly Hills Girls High School","suburb":"Beverly Hills","postcode":"2209","phone":"9150 4280","public_email":"beverlyhg-h.school@det.nsw.edu.au","contact_form_url":"","website_url":"https://beverlyhg-h.schools.nsw.gov.au","lat":-33.9465,"lon":151.0692},{"sector":"government","school_name":"Beverly Hills North Public School","suburb":"Beverly Hills","postcode":"2209","phone":"9759 3849","public_email":"beverlyhn-p.school@det.nsw.edu.au","contact_form_url":"","website_url":"https://beverlyhn-p.schools.nsw.gov.au","lat":-33.9465,"lon":151.0692},{"sector":"government","school_name":"Beverly Hills Public School","suburb":"Beverly Hills","postcode":"2209","phone":"9580 5074","public_email":"beverlyhi-p.school@det.nsw.edu.au","contact_form_url":"","website_url":"https://beverlyhi-p.schools.nsw.gov.au","lat":-33.9465,"lon":151.0692},{"sector":"government","school_name":"Bexhill Public School","suburb":"Bexhill","postcode":"2480","phone":"6628 4223","public_email":"bexhill-p.school@det.nsw.edu.au","contact_form_url":"","website_url":"https://bexhill-p.schools.nsw.gov.au","lat":-28.7493,"lon":153.2724},{"sector":"government","school_name":"Bexley North Public School","suburb":"Bexley","postcode":"2207","phone":"9150 6171","public_email":"bexleynth-p.school@det.nsw.edu.au","contact_form_url":"","website_url":"https://bexleynth-p.schools.nsw.gov.au","lat":-33.9353,"lon":151.1257},{"sector":"government","school_name":"Bexley Public School","suburb":"Bexley","postcode":"2207","phone":"9567 3501","public_email":"bexley-p.school@det.nsw.edu.au","contact_form_url":"","website_url":"https://bexley-p.schools.nsw.gov.au","lat":-33.9353,"lon":151.1257},{"sector":"independent","school_name":"Bhaktivedanta Swami Gurukula School","suburb":"Eungella","postcode":"2484","phone":"02 6672 3788","public_email":"","contact_form_url":"","website_url":"https://www.krishnaschool.org","lat":-28.3702,"lon":153.3425},{"sector":"independent","school_name":"Biala Special School","suburb":"Ballina","postcode":"2478","phone":"02 6686 3395","public_email":"","contact_form_url":"","website_url":"https://www.biala.org.au/","lat":-28.8571,"lon":153.5874},{"sector":"government","school_name":"Biddabah Public School","suburb":"Warners Bay","postcode":"2282","phone":"4954 6058","public_email":"biddabah-p.school@det.nsw.edu.au","contact_form_url":"","website_url":"https://biddabah-p.schools.nsw.gov.au","lat":-32.9725,"lon":151.6527},{"sector":"government","school_name":"Bidwill Public School","suburb":"Bidwill","postcode":"2770","phone":"9628 2444","public_email":"bidwill-p.school@det.nsw.edu.au","contact_form_url":"","website_url":"https://bidwill-p.schools.nsw.gov.au","lat":-33.7441,"lon":150.8064},{"sector":"government","school_name":"Bigga Public School","suburb":"Bigga","postcode":"2583","phone":"4835 2236","public_email":"bigga-p.school@det.nsw.edu.au","contact_form_url":"","website_url":"https://bigga-p.schools.nsw.gov.au","lat":-34.2168,"lon":149.4755},{"sector":"government","school_name":"Bilambil Public School","suburb":"Bilambil","postcode":"2486","phone":"07 5590 7210","public_email":"bilambil-p.school@det.nsw.edu.au","contact_form_url":"","website_url":"https://bilambil-p.schools.nsw.gov.au","lat":-28.2383,"lon":153.5008},{"sector":"government","school_name":"Bilgola Plateau Public School","suburb":"Bilgola Plateau","postcode":"2107","phone":"9918 6524","public_email":"bilgolapla-p.school@det.nsw.edu.au","contact_form_url":"","website_url":"https://bilgolapla-p.schools.nsw.gov.au","lat":-33.6342,"lon":151.3234},{"sector":"government","school_name":"Billabong High School","suburb":"Culcairn","postcode":"2660","phone":"6029 8377","public_email":"billabong-h.school@det.nsw.edu.au","contact_form_url":"","website_url":"https://billabong-h.schools.nsw.gov.au","lat":-35.6637,"lon":147.0787},{"sector":"government","school_name":"Bilpin Public School","suburb":"Bilpin","postcode":"2758","phone":"4567 1154","public_email":"bilpin-p.school@det.nsw.edu.au","contact_form_url":"","website_url":"https://bilpin-p.schools.nsw.gov.au","lat":-33.4486,"lon":150.6295},{"sector":"government","school_name":"Binalong Public School","suburb":"Binalong","postcode":"2584","phone":"6227 4381","public_email":"binalong-p.school@det.nsw.edu.au","contact_form_url":"","website_url":"https://binalong-p.schools.nsw.gov.au","lat":-34.6717,"lon":148.6348},{"sector":"government","school_name":"Binda Public School","suburb":"Binda","postcode":"2583","phone":"4835 6052","public_email":"binda-p.school@det.nsw.edu.au","contact_form_url":"","website_url":"https://binda-p.schools.nsw.gov.au","lat":-34.2168,"lon":149.4755},{"sector":"government","school_name":"Bingara Central School","suburb":"Bingara","postcode":"2404","phone":"6724 1606","public_email":"bingara-c.school@det.nsw.edu.au","contact_form_url":"","website_url":"https://bingara-c.schools.nsw.gov.au","lat":-29.9667,"lon":150.6},{"sector":"government","school_name":"Binnaway Central School","suburb":"Binnaway","postcode":"2395","phone":"6844 1606","public_email":"binnaway-c.school@det.nsw.edu.au","contact_form_url":"","website_url":"https://binnaway-c.schools.nsw.gov.au","lat":-31.5523,"lon":149.3787},{"sector":"government","school_name":"Binya Public School","suburb":"Binya","postcode":"2665","phone":"6968 3221","public_email":"binya-p.school@det.nsw.edu.au","contact_form_url":"","website_url":"https://binya-p.schools.nsw.gov.au","lat":-34.3493,"lon":147.2218},{"sector":"government","school_name":"Biraban Public School","suburb":"Toronto","postcode":"2283","phone":"4959 1902","public_email":"biraban-p.school@det.nsw.edu.au","contact_form_url":"","website_url":"https://biraban-p.schools.nsw.gov.au","lat":-33.0423,"lon":151.6116},{"sector":"government","school_name":"Birchgrove Public School","suburb":"Balmain","postcode":"2041","phone":"9810 2469","public_email":"birchgrove-p.school@det.nsw.edu.au","contact_form_url":"","website_url":"https://birchgrove-p.schools.nsw.gov.au","lat":-33.8548,"lon":151.1833},{"sector":"government","school_name":"Birrong Boys High School","suburb":"Birrong","postcode":"2143","phone":"9644 5200","public_email":"birrongboy-h.school@det.nsw.edu.au","contact_form_url":"","website_url":"https://birrongboy-h.schools.nsw.gov.au","lat":-33.8931,"lon":151.0337},{"sector":"government","school_name":"Birrong Girls High School","suburb":"Birrong","postcode":"2143","phone":"9644 5057","public_email":"birronggir-h.school@det.nsw.edu.au","contact_form_url":"","website_url":"https://birronggir-h.schools.nsw.gov.au","lat":-33.8931,"lon":151.0337},{"sector":"government","school_name":"Birrong Public School","suburb":"Birrong","postcode":"2143","phone":"9644 3078","public_email":"birrong-p.school@det.nsw.edu.au","contact_form_url":"","website_url":"https://birrong-p.schools.nsw.gov.au","lat":-33.8931,"lon":151.0337},{"sector":"independent","school_name":"Bishop Druitt College","suburb":"Coffs Harbour","postcode":"2450","phone":"+61 2 6651 5644","public_email":"enrolments@bdc.nsw.edu.au","contact_form_url":"","website_url":"http://www.bdc.nsw.edu.au","lat":-30.1574,"lon":153.0958},{"sector":"independent","school_name":"Bishop Tyrrell Anglican College","suburb":"Fletcher","postcode":"2287","phone":"+61 2 4979 8484","public_email":"office@btac.nsw.edu.au","contact_form_url":"https://www.btac.nsw.edu.au","website_url":"https://www.btac.nsw.edu.au","lat":-32.8937,"lon":151.6901},{"sector":"government","school_name":"Black Hill Public School","suburb":"Black Hill","postcode":"2322","phone":"4930 3137","public_email":"blackhill-p.school@det.nsw.edu.au","contact_form_url":"","website_url":"https://blackhill-p.schools.nsw.gov.au","lat":-32.7931,"lon":151.6769},{"sector":"government","school_name":"Black Mountain Public School","suburb":"Black Mountain","postcode":"2365","phone":"6775 0192","public_email":"blackmtn-p.school@det.nsw.edu.au","contact_form_url":"","website_url":"https://blackmtn-p.schools.nsw.gov.au","lat":-30.1333,"lon":151.8667},{"sector":"government","school_name":"Blackalls Park Public School","suburb":"Blackalls Park","postcode":"2283","phone":"4959 1213","public_email":"blackallpk-p.school@det.nsw.edu.au","contact_form_url":"","website_url":"https://blackallpk-p.schools.nsw.gov.au","lat":-33.0423,"lon":151.6116},{"sector":"government","school_name":"Blackett Public School","suburb":"Blackett","postcode":"2770","phone":"9628 7760","public_email":"blackett-p.school@det.nsw.edu.au","contact_form_url":"","website_url":"https://blackett-p.schools.nsw.gov.au","lat":-33.7441,"lon":150.8064},{"sector":"government","school_name":"Blackheath Public School","suburb":"Blackheath","postcode":"2785","phone":"4787 8253","public_email":"blackheath-p.school@det.nsw.edu.au","contact_form_url":"","website_url":"https://blackheath-p.schools.nsw.gov.au","lat":-33.7333,"lon":150.25},{"sector":"government","school_name":"Blacksmiths Public School","suburb":"Blacksmiths","postcode":"2281","phone":"4971 1519","public_email":"blacksmith-p.school@det.nsw.edu.au","contact_form_url":"","website_url":"https://blacksmith-p.schools.nsw.gov.au","lat":-33.0823,"lon":151.6455},{"sector":"government","school_name":"Blacktown Boys High School","suburb":"Blacktown","postcode":"2148","phone":"9622 1558","public_email":"blacktownb-h.school@det.nsw.edu.au","contact_form_url":"","website_url":"https://blacktownb-h.schools.nsw.gov.au","lat":-33.7482,"lon":150.8927},{"sector":"government","school_name":"Blacktown Girls High School","suburb":"Blacktown","postcode":"2148","phone":"9831 7577","public_email":"blacktowng-h.school@det.nsw.edu.au","contact_form_url":"","website_url":"https://blacktowng-h.schools.nsw.gov.au","lat":-33.7482,"lon":150.8927},{"sector":"government","school_name":"Blacktown North Public School","suburb":"Blacktown","postcode":"2148","phone":"9622 2968","public_email":"blacktownn-p.school@det.nsw.edu.au","contact_form_url":"","website_url":"https://blacktownn-p.schools.nsw.gov.au","lat":-33.7482,"lon":150.8927},{"sector":"government","school_name":"Blacktown South Public School","suburb":"Blacktown","postcode":"2148","phone":"9622 2449","public_email":"blacktowns-p.school@det.nsw.edu.au","contact_form_url":"","website_url":"https://blacktowns-p.schools.nsw.gov.au","lat":-33.7482,"lon":150.8927},{"sector":"government","school_name":"Blacktown West Public School","suburb":"Blacktown","postcode":"2148","phone":"9622 2285","public_email":"blacktownw-p.school@det.nsw.edu.au","contact_form_url":"","website_url":"https://blacktownw-p.schools.nsw.gov.au","lat":-33.7482,"lon":150.8927},{"sector":"independent","school_name":"Blacktown Youth College - Lawson Campus","suburb":"Lawson","postcode":"2783","phone":"+61 2 4759 1012","public_email":"info@blacktownyouthcollege.nsw.edu.au","contact_form_url":"https://www.blacktownyouthcollege.nsw.edu.au/contact-us","website_url":"http://www.blacktownyouthcollege.nsw.edu.au","lat":-33.7206,"lon":150.4297},{"sector":"independent","school_name":"Blacktown Youth College Incorporated","suburb":"Hebersham","postcode":"2770","phone":"+61 2 9011 5335","public_email":"info@blacktownyouthcollege.nsw.edu.au","contact_form_url":"https://www.blacktownyouthcollege.nsw.edu.au/contact-us","website_url":"https://www.blacktownyouthcollege.nsw.edu.au","lat":-33.7441,"lon":150.8064},{"sector":"government","school_name":"Blackville Public School","suburb":"Blackville","postcode":"2343","phone":"6747 4024","public_email":"blackville-p.school@det.nsw.edu.au","contact_form_url":"","website_url":"https://blackville-p.schools.nsw.gov.au","lat":-31.5667,"lon":150.55},{"sector":"government","school_name":"Blackwell Public School","suburb":"St Clair","postcode":"2759","phone":"9670 5080","public_email":"blackwell-p.school@det.nsw.edu.au","contact_form_url":"","website_url":"https://blackwell-p.schools.nsw.gov.au","lat":-33.813,"lon":150.7977},{"sector":"government","school_name":"Blairmount Public School","suburb":"Blairmount","postcode":"2559","phone":"4626 1795","public_email":"blairmount-p.school@det.nsw.edu.au","contact_form_url":"","website_url":"https://blairmount-p.schools.nsw.gov.au","lat":-34.0508,"lon":150.7924},{"sector":"government","school_name":"Blakebrook Public School","suburb":"Blakebrook","postcode":"2480","phone":"6629 3263","public_email":"blakebrook-p.school@det.nsw.edu.au","contact_form_url":"","website_url":"https://blakebrook-p.schools.nsw.gov.au","lat":-28.7493,"lon":153.2724},{"sector":"government","school_name":"Blakehurst High School","suburb":"Blakehurst","postcode":"2221","phone":"9546 3281","public_email":"blakehurst-h.school@det.nsw.edu.au","contact_form_url":"","website_url":"https://blakehurst-h.schools.nsw.gov.au","lat":-33.9867,"lon":151.1173},{"sector":"government","school_name":"Blakehurst Public School","suburb":"Blakehurst","postcode":"2221","phone":"9546 1555","public_email":"blakehurst-p.school@det.nsw.edu.au","contact_form_url":"","website_url":"https://blakehurst-p.schools.nsw.gov.au","lat":-33.9867,"lon":151.1173},{"sector":"government","school_name":"Blandford Public School","suburb":"Blandford","postcode":"2338","phone":"6546 6117","public_email":"blandford-p.school@det.nsw.edu.au","contact_form_url":"","website_url":"https://blandford-p.schools.nsw.gov.au","lat":-31.7641,"lon":150.8869},{"sector":"government","school_name":"Blaxcell Street Public School","suburb":"Granville","postcode":"2142","phone":"9632 8162","public_email":"blaxcellst-p.school@det.nsw.edu.au","contact_form_url":"","website_url":"https://blaxcellst-p.schools.nsw.gov.au","lat":-33.8197,"lon":151.0264},{"sector":"government","school_name":"Blaxland East Public School","suburb":"Blaxland","postcode":"2774","phone":"4739 1579","public_email":"blaxlande-p.school@det.nsw.edu.au","contact_form_url":"","website_url":"https://blaxlande-p.schools.nsw.gov.au","lat":-33.7307,"lon":150.6353},{"sector":"government","school_name":"Blaxland High School","suburb":"Blaxland","postcode":"2774","phone":"4739 4655","public_email":"blaxland-h.school@det.nsw.edu.au","contact_form_url":"","website_url":"https://blaxland-h.schools.nsw.gov.au","lat":-33.7307,"lon":150.6353},{"sector":"government","school_name":"Blaxland Public School","suburb":"Blaxland","postcode":"2774","phone":"4739 2817","public_email":"blaxland-p.school@det.nsw.edu.au","contact_form_url":"","website_url":"https://blaxland-p.schools.nsw.gov.au","lat":-33.7307,"lon":150.6353},{"sector":"government","school_name":"Blayney High School","suburb":"Blayney","postcode":"2799","phone":"6368 2100","public_email":"blayney-h.school@det.nsw.edu.au","contact_form_url":"","website_url":"https://blayney-h.schools.nsw.gov.au","lat":-33.5323,"lon":149.2537},{"sector":"government","school_name":"Blayney Public School","suburb":"Blayney","postcode":"2799","phone":"6368 2154","public_email":"blayney-p.school@det.nsw.edu.au","contact_form_url":"","website_url":"https://blayney-p.schools.nsw.gov.au","lat":-33.5323,"lon":149.2537},{"sector":"catholic","school_name":"Blessed Sacrament Catholic Primary School","suburb":"Clifton Gardens","postcode":"2088","phone":"(02) 9969 7758","public_email":"info@bscliftongardens.catholic.edu.au","contact_form_url":"","website_url":"https://bscliftongardens.syd.catholic.edu.au","lat":-33.839,"lon":151.2396},{"sector":"government","school_name":"Bletchington Public School","suburb":"Orange","postcode":"2800","phone":"6362 3422","public_email":"bletchingt-p.school@det.nsw.edu.au","contact_form_url":"","website_url":"https://bletchingt-p.schools.nsw.gov.au","lat":-33.2547,"lon":149.156},{"sector":"government","school_name":"Bligh Park Public School","suburb":"Bligh Park","postcode":"2756","phone":"02 4572 7067","public_email":"blighpark-p.school@det.nsw.edu.au","contact_form_url":"","website_url":"https://blighpark-p.schools.nsw.gov.au","lat":-33.6586,"lon":150.8108},{"sector":"government","school_name":"Blighty Public School","suburb":"Blighty","postcode":"2713","phone":"03 5882 6238","public_email":"blighty-p.school@det.nsw.edu.au","contact_form_url":"","website_url":"https://blighty-p.schools.nsw.gov.au","lat":-35.6216,"lon":145.4285},{"sector":"independent","school_name":"Blue Gum Community School (NSW)","suburb":"Hornsby","postcode":"2077","phone":"02 9138 2019","public_email":"school@bluegum.nsw.edu.au","contact_form_url":"https://bluegum.nsw.edu.au/contact","website_url":"https://bluegum.nsw.edu.au/","lat":-33.7024,"lon":151.0993},{"sector":"government","school_name":"Blue Haven Public School","suburb":"Blue Haven","postcode":"2262","phone":"4399 0167","public_email":"bluehaven-p.school@det.nsw.edu.au","contact_form_url":"","website_url":"https://bluehaven-p.schools.nsw.gov.au","lat":-33.2069,"lon":151.5436},{"sector":"independent","school_name":"Blue Hills College","suburb":"Goonellabah","postcode":"2480","phone":"+61 2 6625 6000","public_email":"","contact_form_url":"","website_url":"http://www.bluehills.nsw.edu.au","lat":-28.7493,"lon":153.2724},{"sector":"independent","school_name":"Blue Mountains Grammar Preparatory School","suburb":"Valley Heights","postcode":"2777","phone":"02 4751 1266","public_email":"bluemountainsgrammarschool@bmgs.nsw.edu.au","contact_form_url":"https://www.bmgs.nsw.edu.au/contact-us/","website_url":"https://www.bmgs.nsw.edu.au","lat":-33.6985,"lon":150.6346},{"sector":"independent","school_name":"Blue Mountains Grammar School","suburb":"Wentworth Falls","postcode":"2782","phone":"02 4757 9000","public_email":"bluemountainsgrammarschool@bmgs.nsw.edu.au","contact_form_url":"https://www.bmgs.nsw.edu.au/contact-us/","website_url":"https://www.bmgs.nsw.edu.au","lat":-33.7103,"lon":150.3753},{"sector":"independent","school_name":"Blue Mountains Steiner School","suburb":"Hazelbrook","postcode":"2779","phone":"+61 2 4758 6044","public_email":"","contact_form_url":"https://www.bluemountainssteiner.nsw.edu.au/","website_url":"https://www.bluemountainssteiner.nsw.edu.au","lat":-33.7245,"lon":150.4584},{"sector":"government","school_name":"Boambee Public School","suburb":"Boambee","postcode":"2450","phone":"6653 1107","public_email":"boambee-p.school@det.nsw.edu.au","contact_form_url":"","website_url":"https://boambee-p.schools.nsw.gov.au","lat":-30.1574,"lon":153.0958},{"sector":"government","school_name":"Bobin Public School","suburb":"Bobin","postcode":"2429","phone":"6550 5147","public_email":"bobin-p.school@det.nsw.edu.au","contact_form_url":"","website_url":"https://bobin-p.schools.nsw.gov.au","lat":-31.7814,"lon":152.0001},{"sector":"government","school_name":"Bobs Farm Public School","suburb":"Bobs Farm","postcode":"2316","phone":"4982 1179","public_email":"bobsfarm-p.school@det.nsw.edu.au","contact_form_url":"","website_url":"https://bobsfarm-p.schools.nsw.gov.au","lat":-32.7858,"lon":152.0896},{"sector":"government","school_name":"Bodalla Public School","suburb":"Bodalla","postcode":"2545","phone":"4473 5257","public_email":"bodalla-p.school@det.nsw.edu.au","contact_form_url":"","website_url":"https://bodalla-p.schools.nsw.gov.au","lat":-36.2891,"lon":148.7385},{"sector":"government","school_name":"Bogan Gate Public School","suburb":"Bogan Gate","postcode":"2876","phone":"6864 1124","public_email":"bogangate-p.school@det.nsw.edu.au","contact_form_url":"","website_url":"https://bogangate-p.schools.nsw.gov.au","lat":-33.1231,"lon":147.9104},{"sector":"government","school_name":"Bogangar Public School","suburb":"Bogangar","postcode":"2488","phone":"6676 2755","public_email":"bogangar-p.school@det.nsw.edu.au","contact_form_url":"","website_url":"https://bogangar-p.schools.nsw.gov.au","lat":-28.3294,"lon":153.5686},{"sector":"government","school_name":"Boggabilla Central School","suburb":"Boggabilla","postcode":"2409","phone":"07 4676 2104","public_email":"boggabilla-c.school@det.nsw.edu.au","contact_form_url":"","website_url":"https://boggabilla-c.schools.nsw.gov.au","lat":-28.736,"lon":150.6239},{"sector":"government","school_name":"Boggabri Public School","suburb":"Boggabri","postcode":"2382","phone":"6743 4526","public_email":"boggabri-p.school@det.nsw.edu.au","contact_form_url":"","website_url":"https://boggabri-p.schools.nsw.gov.au","lat":-30.7095,"lon":150.0412},{"sector":"government","school_name":"Bolwarra Public School","suburb":"Bolwarra","postcode":"2320","phone":"4930 1296","public_email":"bolwarra-p.school@det.nsw.edu.au","contact_form_url":"","website_url":"https://bolwarra-p.schools.nsw.gov.au","lat":-32.7288,"lon":151.5345},{"sector":"government","school_name":"Bomaderry High School","suburb":"Bomaderry","postcode":"2541","phone":"4421 0699","public_email":"bomaderry-h.school@det.nsw.edu.au","contact_form_url":"","website_url":"https://bomaderry-h.schools.nsw.gov.au/","lat":-34.8842,"lon":150.6004},{"sector":"government","school_name":"Bomaderry Public School","suburb":"Bomaderry","postcode":"2541","phone":"4421 6577","public_email":"bomaderry-p.school@det.nsw.edu.au","contact_form_url":"","website_url":"https://bomaderry-p.schools.nsw.gov.au","lat":-34.8842,"lon":150.6004},{"sector":"government","school_name":"Bombala High School","suburb":"Bombala","postcode":"2632","phone":"6458 3358","public_email":"bombala-h.school@det.nsw.edu.au","contact_form_url":"","website_url":"https://bombala-h.schools.nsw.gov.au","lat":-36.9309,"lon":149.2131},{"sector":"government","school_name":"Bombala Public School","suburb":"Bombala","postcode":"2632","phone":"6458 3423","public_email":"bombala-p.school@det.nsw.edu.au","contact_form_url":"","website_url":"https://bombala-p.schools.nsw.gov.au","lat":-36.9309,"lon":149.2131},{"sector":"government","school_name":"Bonalbo Central School","suburb":"Bonalbo","postcode":"2469","phone":"6665 1205","public_email":"bonalbo-c.school@det.nsw.edu.au","contact_form_url":"","website_url":"https://bonalbo-c.schools.nsw.gov.au","lat":-28.976,"lon":152.7656},{"sector":"government","school_name":"Bondi Beach Public School","suburb":"Bondi Beach","postcode":"2026","phone":"9130 2116","public_email":"bondibeach-p.school@det.nsw.edu.au","contact_form_url":"","website_url":"https://bondibeach-p.schools.nsw.gov.au","lat":-33.8879,"lon":151.2808},{"sector":"government","school_name":"Bondi Public School","suburb":"Bondi","postcode":"2026","phone":"9130 6998","public_email":"bondi-p.school@det.nsw.edu.au","contact_form_url":"","website_url":"https://bondi-p.schools.nsw.gov.au","lat":-33.8879,"lon":151.2808},