sector,school_name,suburb,postcode,phone,public_email,contact_form_url,website_url,source_directory_url,last_verified_date,lat,lon,email_validation_status,email_validation_reason
independent,A.G.B.U. Alexander Primary School,Duffys Forest,2084,+61 2 9486 3266,office@alexander.nsw.edu.au,https://alexander.nsw.edu.au/,https://www.alexander.nsw.edu.au/,https://www.isnsw.edu.au/about-independent-schools-nsw/independent-school-finder,2026-02-19,-33.6583,151.2107,valid,ok
government,Abbotsford Public School,Abbotsford,2046,9713 6220,,,https://abbotsford-p.schools.nsw.gov.au,https://www.data.nsw.gov.au/data/dataset/nsw-education-nsw-public-schools-master-dataset,2026-02-19,-33.8582,151.1309,invalid,invalid_format
independent,Abbotsleigh,Wahroonga,2076,+61 2 9473 7777,,,http://www.abbotsleigh.nsw.edu.au,https://www.isnsw.edu.au/about-independent-schools-nsw/independent-school-finder,2026-02-19,-33.7053,151.1228,invalid,invalid_format
independent,Abbotsleigh Junior School,Wahroonga,2076,+61 2 9473 7777,,,https://www.abbotsleigh.nsw.edu.au,https://www.isnsw.edu.au/about-independent-schools-nsw/independent-school-finder,2026-02-19,-33.7053,151.1228,invalid,invalid_format
government,Aberdeen Public School,Aberdeen,2336,6543 7271,,,https://aberdeen-p.schools.nsw.gov.au,https://www.data.nsw.gov.au/data/dataset/nsw-education-nsw-public-schools-master-dataset,2026-02-19,-32.1586,150.942,invalid,invalid_format
government,Abermain Public School,Abermain,2326,4930 4210,,,https://abermain-p.schools.nsw.gov.au,https://www.data.nsw.gov.au/data/dataset/nsw-education-nsw-public-schools-master-dataset,2026-02-19,-32.8276,151.4082,invalid,invalid_format
government,Adaminaby Public School,Adaminaby,2629,6454 2265,,,https://adaminaby-p.schools.nsw.gov.au,https://www.data.nsw.gov.au/data/dataset/nsw-education-nsw-public-schools-master-dataset,2026-02-19,-35.9965,148.7724,invalid,invalid_format
government,Adamstown Public School,Adamstown,2289,4957 1114,,,https://adamstown-p.schools.nsw.gov.au,https://www.data.nsw.gov.au/data/dataset/nsw-education-nsw-public-schools-master-dataset,2026-02-19,-32.9428,151.6958,invalid,invalid_format
government,Adelong Public School,Adelong,2729,6946 2053,,,https://adelong-p.schools.nsw.gov.au,https://www.data.nsw.gov.au/data/dataset/nsw-education-nsw-public-schools-master-dataset,2026-02-19,-35.0974,147.8123,invalid,invalid_format
independent,Aetaomah School,Terragon,2484,+61 2 6679 7255,contact@aetaomah.nsw.edu.au,https://www.aetaomah.nsw.edu.au/contact-us-1,http://www.aetaomah.nsw.edu.au,https://www.isnsw.edu.au/about-independent-schools-nsw/independent-school-finder,2026-02-19,-28.3702,153.3425,valid,ok
government,Airds High School,Campbelltown,2560,4625 5811,,,https://airds-h.schools.nsw.gov.au,https://www.data.nsw.gov.au/data/dataset/nsw-education-nsw-public-schools-master-dataset,2026-02-19,-34.05,150.8333,invalid,invalid_format
government,Ajuga School,Glenfield,2167,9827 6100,,,https://ajuga-s.schools.nsw.gov.au,https://www.data.nsw.gov.au/data/dataset/nsw-education-nsw-public-schools-master-dataset,2026-02-19,-33.9667,150.9,invalid,invalid_format
independent,Al Amanah College - Bankstown,Bankstown,2200,+61 2 9708 1220,admin@alamanah.nsw.edu.au,https://www.alamanah.nsw.edu.au/,https://www.alamanah.nsw.edu.au,https://www.isnsw.edu.au/about-independent-schools-nsw/independent-school-finder,2026-02-19,-33.9196,151.0308,valid,ok
independent,Al Amanah College - Liverpool,Liverpool,2170,02 9822 8022,admin@alamanah.nsw.edu.au,https://www.alamanah.nsw.edu.au/,https://www.alamanah.nsw.edu.au/,https://www.isnsw.edu.au/about-independent-schools-nsw/independent-school-finder,2026-02-19,-33.9522,150.8995,valid,ok
independent,Al Hikma College,Lakemba,2195,02 9703 3017,admin@alhikma.nsw.edu.au,http://www.alhikma.nsw.edu.au,http://www.alhikma.nsw.edu.au,https://www.isnsw.edu.au/about-independent-schools-nsw/independent-school-finder,2026-02-19,-33.922,151.0716,valid,ok
independent,Al Noori Muslim School - Primary Campus,Greenacre,2190,02 9790 5726,,https://alnoori.nsw.edu.au/,http://www.alnoori.nsw.edu.au,https://www.isnsw.edu.au/about-independent-schools-nsw/independent-school-finder,2026-02-19,-33.9003,151.0556,invalid,invalid_format
independent,Al Noori Muslim School - Senior Campus,Greenacre,2190,02 9790 5726,,https://alnoori.nsw.edu.au/,https://www.alnoori.nsw.edu.au,https://www.isnsw.edu.au/about-independent-schools-nsw/independent-school-finder,2026-02-19,-33.9003,151.0556,invalid,invalid_format
independent,Al Sadiq College,Greenacre,2190,+61 2 9750 6011,,,https://www.alsadiq.nsw.edu.au,https://www.isnsw.edu.au/about-independent-schools-nsw/independent-school-finder,2026-02-19,-33.9003,151.0556,invalid,invalid_format
independent,Al Sadiq College - Primary Campus,Yagoona,2199,+61 2 9796 4240,,,https://www.alsadiq.nsw.edu.au,https://www.isnsw.edu.au/about-independent-schools-nsw/independent-school-finder,2026-02-19,-33.9049,151.02,invalid,invalid_format
independent,Al Zahra College,Arncliffe,2205,02 9599 0161,info@azc.nsw.edu.au,https://www.azc.nsw.edu.au/,https://www.azc.nsw.edu.au,https://www.isnsw.edu.au/about-independent-schools-nsw/independent-school-finder,2026-02-19,-33.9313,151.1522,valid,ok
independent,Al-Faisal College,Auburn,2144,+61 2 8877 2000,alfaisalcollege@afc.nsw.edu.au,https://www.afc.nsw.edu.au/contact-us,https://www.afc.nsw.edu.au,https://www.isnsw.edu.au/about-independent-schools-nsw/independent-school-finder,2026-02-19,-33.85,151.0333,valid,ok
independent,Al-Faisal College - Campbelltown Campus,Minto,2566,02 9603 5866,alfaisalcollege@afc.nsw.edu.au,https://www.afc.nsw.edu.au/contact-us,https://www.afc.nsw.edu.au,https://www.isnsw.edu.au/about-independent-schools-nsw/independent-school-finder,2026-02-19,-34.0224,150.8296,valid,ok
independent,Al-Faisal College - Lakemba,Lakemba,2195,,alfaisalcollege@afc.nsw.edu.au,http://afc.nsw.edu.au/contact-us,http://afc.nsw.edu.au/,https://www.isnsw.edu.au/about-independent-schools-nsw/independent-school-finder,2026-02-19,-33.922,151.0716,valid,ok
independent,Al-Faisal College - Liverpool Campus,Austral,2179,+61 2 9606 0355,alfaisalcollege@afc.nsw.edu.au,https://www.afc.nsw.edu.au/contact-us,https://www.afc.nsw.edu.au,https://www.isnsw.edu.au/about-independent-schools-nsw/independent-school-finder,2026-02-19,-33.9698,150.7967,valid,ok
government,Albert Park Public School,East Lismore,2480,6621 3259,,,https://albertpk-p.schools.nsw.gov.au,https://www.data.nsw.gov.au/data/dataset/nsw-education-nsw-public-schools-master-dataset,2026-02-19,-28.7493,153.2724,invalid,invalid_format
government,Albion Park High School,Albion Park,2527,4257 1744,,,https://albionpk-h.schools.nsw.gov.au,https://www.data.nsw.gov.au/data/dataset/nsw-education-nsw-public-schools-master-dataset,2026-02-19,-34.5713,150.7757,invalid,invalid_format
government,Albion Park Public School,Albion Park,2527,4256 1244,,,https://albionpk-p.schools.nsw.gov.au,https://www.data.nsw.gov.au/data/dataset/nsw-education-nsw-public-schools-master-dataset,2026-02-19,-34.5713,150.7757,invalid,invalid_format
government,Albion Park Rail Public School,Albion Park Rail,2527,4256 1287,,,https://albionpkr-p.schools.nsw.gov.au,https://www.data.nsw.gov.au/data/dataset/nsw-education-nsw-public-schools-master-dataset,2026-02-19,-34.5713,150.7757,invalid,invalid_format
government,Albury High School,Albury,2640,6021 3488,,,https://albury-h.schools.nsw.gov.au,https://www.data.nsw.gov.au/data/dataset/nsw-education-nsw-public-schools-master-dataset,2026-02-19,-36.0865,146.9091,invalid,invalid_format
government,Albury North Public School,Albury,2640,6025 1730,,,https://alburynth-p.schools.nsw.gov.au,https://www.data.nsw.gov.au/data/dataset/nsw-education-nsw-public-schools-master-dataset,2026-02-19,-36.0865,146.9091,invalid,invalid_format
government,Albury Public School,Albury,2640,02 6021 3849,,,https://albury-p.schools.nsw.gov.au,https://www.data.nsw.gov.au/data/dataset/nsw-education-nsw-public-schools-master-dataset,2026-02-19,-36.0865,146.9091,invalid,invalid_format
government,Albury West Public School,Albury,2640,6021 2288,,,https://alburywest-p.schools.nsw.gov.au,https://www.data.nsw.gov.au/data/dataset/nsw-education-nsw-public-schools-master-dataset,2026-02-19,-36.0865,146.9091,invalid,invalid_format
government,Aldavilla Public School,Yarravel,2440,6563 1141,,,https://aldavilla-p.schools.nsw.gov.au,https://www.data.nsw.gov.au/data/dataset/nsw-education-nsw-public-schools-master-dataset,2026-02-19,-31.1332,152.7514,invalid,invalid_format
independent,Alesco Secondary College,Cooks Hill,2300,+61 2 4925 4200,,,https://atwea.edu.au/high-school-at-alesco/,https://www.isnsw.edu.au/about-independent-schools-nsw/independent-school-finder,2026-02-19,-32.9295,151.7801,invalid,invalid_format
independent,Alesco Secondary College - Abermain Campus,Abermain,2326,+61 2 4925 4200,,,https://atwea.edu.au/high-school-at-alesco/,https://www.isnsw.edu.au/about-independent-schools-nsw/independent-school-finder,2026-02-19,-32.8276,151.4082,invalid,invalid_format
independent,Alesco Secondary College - Charlestown Campus,Charlestown,2290,+61 2 4925 4200,,,https://atwea.edu.au/high-school-at-alesco/,https://www.isnsw.edu.au/about-independent-schools-nsw/independent-school-finder,2026-02-19,-32.9937,151.722,invalid,invalid_format
independent,Alesco Secondary College - Coast Campus,Tuncurry,2324,+61 2 4925 4200,,,https://atwea.edu.au/high-school-at-alesco/,https://www.isnsw.edu.au/about-independent-schools-nsw/independent-school-finder,2026-02-19,-32.6478,151.7616,invalid,invalid_format
independent,Alesco Secondary College - Northlakes Campus,Argenton,2284,+61 2 4925 4200,,,https://atwea.edu.au/high-school-at-alesco/,https://www.isnsw.edu.au/about-independent-schools-nsw/independent-school-finder,2026-02-19,-32.9806,151.6184,invalid,invalid_format
independent,Alesco Secondary College - Raymond Terrace Campus,Raymond Terrace,2324,+61 2 4925 4200,,,https://atwea.edu.au/high-school-at-alesco/,https://www.isnsw.edu.au/about-independent-schools-nsw/independent-school-finder,2026-02-19,-32.6478,151.7616,invalid,invalid_format
independent,Alesco Secondary College - Tomaree Campus,Nelson Bay,2315,+61 2 4925 4200,,,https://atwea.edu.au/high-school-at-alesco/,https://www.isnsw.edu.au/about-independent-schools-nsw/independent-school-finder,2026-02-19,-32.7281,152.1496,invalid,invalid_format
independent,Alesco Secondary College - Woodberry Campus,Woodberry,2322,+61 2 4925 4200,,,https://atwea.edu.au/high-school-at-alesco/,https://www.isnsw.edu.au/about-independent-schools-nsw/independent-school-finder,2026-02-19,-32.7931,151.6769,invalid,invalid_format
government,Alexandria Park Community School,Alexandria,2015,9698 1967,,,https://alexparkcs-c.schools.nsw.gov.au,https://www.data.nsw.gov.au/data/dataset/nsw-education-nsw-public-schools-master-dataset,2026-02-19,-33.9115,151.2004,invalid,invalid_format
government,Alfords Point Public School,Alfords Point,2234,9543 0185,,,https://alfordspt-p.schools.nsw.gov.au,https://www.data.nsw.gov.au/data/dataset/nsw-education-nsw-public-schools-master-dataset,2026-02-19,-34.0341,151.0119,invalid,invalid_format
catholic,All Hallows Catholic Primary School,Five Dock,2046,(02) 9713 4469,info@ahpsfivedock.catholic.edu.au,,https://ahpsfivedock.syd.catholic.edu.au,https://www.csnsw.catholic.edu.au/school-finder,2026-02-19,-33.8582,151.1309,valid,ok
catholic,All Hallows Catholic Primary School Gulgong,Gulgong,2852,(02) 6374 1582,allhallowsgulgong@bth.catholic.edu.au,,https://www.allhallowsgulgong.catholic.edu.au,https://www.csnsw.catholic.edu.au/school-finder,2026-02-19,-32.3818,149.2762,valid,ok
catholic,All Saints Catholic College,Liverpool,2170,(02) 9602 4555,info@ascc.catholic.edu.au,,https://ascc.syd.catholic.edu.au,https://www.csnsw.catholic.edu.au/school-finder,2026-02-19,-33.9522,150.8995,valid,ok
catholic,"All Saints Catholic College, Casula Campus",Casula,2170,(02) 9602 4555,info@ascc.catholic.edu.au,,https://ascc.syd.catholic.edu.au,https://www.csnsw.catholic.edu.au/school-finder,2026-02-19,-33.9522,150.8995,valid,ok
catholic,All Saints College,Maitland,2320,(02) 4933 6177,admin@maitlandsm.catholic.edu.au,,https://maitlandasc.catholic.edu.au,https://www.csnsw.catholic.edu.au/school-finder,2026-02-19,-32.7288,151.5345,valid,ok
catholic,All Saints College (St Peter's Campus),Maitland,2320,(02) 4933 6177,admin@maitlandsp.catholic.edu.au,,https://maitlandasc.catholic.edu.au,https://www.csnsw.catholic.edu.au/school-finder,2026-02-19,-32.7288,151.5345,valid,ok
independent,All Saints Grammar,Belmore,2192,+61 2 9704 6400,admin@allsaints.nsw.edu.au,https://www.allsaints.nsw.edu.au,https://www.allsaints.nsw.edu.au,https://www.isnsw.edu.au/about-independent-schools-nsw/independent-school-finder,2026-02-19,-33.919,151.0894,valid,ok
independent,All Saints Grammar Junior School,Belmore,2192,+61 2 9704 6400,admin@allsaints.nsw.edu.au,https://www.allsaints.nsw.edu.au,https://www.allsaints.nsw.edu.au,https://www.isnsw.edu.au/about-independent-schools-nsw/independent-school-finder,2026-02-19,-33.919,151.0894,valid,ok
catholic,All Saints Primary School,Tumbarumba,2653,(02) 6948 2395,info@asww.catholic.edu.au,,https://web.asww.catholic.edu.au,https://www.csnsw.catholic.edu.au/school-finder,2026-02-19,-35.7781,148.0117,valid,ok
government,Allambie Heights Public School,Allambie Heights,2100,9451 5440,,,https://allambieht-p.schools.nsw.gov.au,https://www.data.nsw.gov.au/data/dataset/nsw-education-nsw-public-schools-master-dataset,2026-02-19,-33.7666,151.2498,invalid,invalid_format
independent,Allegra School Coffs Harbour,Coffs Harbour,2450,+61 2 6651 6898,,,https://www.allegraschool.nsw.edu.au,https://www.isnsw.edu.au/about-independent-schools-nsw/independent-school-finder,2026-02-19,-30.1574,153.0958,invalid,invalid_format
government,Alma Public School,Broken Hill,2880,08 8088 2181,,,https://alma-p.schools.nsw.gov.au,https://www.data.nsw.gov.au/data/dataset/nsw-education-nsw-public-schools-master-dataset,2026-02-19,-31.8333,141.5102,invalid,invalid_format
independent,Alpha Omega Senior College,Auburn,2144,+61 2 9199 3900,theregistrar@aosc.nsw.edu.au,https://www.aosc.nsw.edu.au/contact-us,https://www.aosc.nsw.edu.au/,https://www.isnsw.edu.au/about-independent-schools-nsw/independent-school-finder,2026-02-19,-33.85,151.0333,valid,ok
independent,Alpha Omega Senior College - Queen Street Campus,Auburn,2144,+61 2 9199 3900,,,https://www.aosc.nsw.edu.au/enrol/,https://www.isnsw.edu.au/about-independent-schools-nsw/independent-school-finder,2026-02-19,-33.85,151.0333,invalid,invalid_format
government,Alstonville High School,Alstonville,2477,6628 5222,,,https://alstonvill-h.schools.nsw.gov.au,https://www.data.nsw.gov.au/data/dataset/nsw-education-nsw-public-schools-master-dataset,2026-02-19,-28.8902,153.4389,invalid,invalid_format
government,Alstonville Public School,Alstonville,2477,02 6628 0775,,,https://alstonvill-p.schools.nsw.gov.au,https://www.data.nsw.gov.au/data/dataset/nsw-education-nsw-public-schools-master-dataset,2026-02-19,-28.8902,153.4389,invalid,invalid_format
government,Ambarvale High School,Rosemeadow,2560,4627 1800,,,https://ambarvale-h.schools.nsw.gov.au,https://www.data.nsw.gov.au/data/dataset/nsw-education-nsw-public-schools-master-dataset,2026-02-19,-34.05,150.8333,invalid,invalid_format
government,Ambarvale Public School,Ambarvale,2560,4626 1485,,,https://ambarvale-p.schools.nsw.gov.au,https://www.data.nsw.gov.au/data/dataset/nsw-education-nsw-public-schools-master-dataset,2026-02-19,-34.05,150.8333,invalid,invalid_format
independent,Amity College - Auburn Campus,Auburn,2144,+61 2 8775 7600,,,https://www.amity.nsw.edu.au,https://www.isnsw.edu.au/about-independent-schools-nsw/independent-school-finder,2026-02-19,-33.85,151.0333,invalid,invalid_format
independent,Amity College - Illawarra Campus,Shellharbour,2529,+61 2 4296 6000,,,https://www.amity.nsw.edu.au/,https://www.isnsw.edu.au/about-independent-schools-nsw/independent-school-finder,2026-02-19,-34.5814,150.8435,invalid,invalid_format
independent,Amity College - Leppington Campus,Leppington,2179,+61 2 9765 2300,,,https://www.amity.nsw.edu.au/,https://www.isnsw.edu.au/about-independent-schools-nsw/independent-school-finder,2026-02-19,-33.9698,150.7967,invalid,invalid_format
independent,Amity College - Prestons Campus,Prestons,2170,+61 2 8784 3111,,,https://www.amity.nsw.edu.au,https://www.isnsw.edu.au/about-independent-schools-nsw/independent-school-finder,2026-02-19,-33.9522,150.8995,invalid,invalid_format
government,Anna Bay Public School,Anna Bay,2316,4982 1187,,,https://annabay-p.schools.nsw.gov.au,https://www.data.nsw.gov.au/data/dataset/nsw-education-nsw-public-schools-master-dataset,2026-02-19,-32.7858,152.0896,invalid,invalid_format
government,Annandale North Public School,Annandale,2038,9660 3972,,,https://annandalen-p.schools.nsw.gov.au,https://www.data.nsw.gov.au/data/dataset/nsw-education-nsw-public-schools-master-dataset,2026-02-19,-33.8833,151.1667,invalid,invalid_format
government,Annandale Public School,Annandale,2038,9516 3711,,,https://annandale-p.schools.nsw.gov.au,https://www.data.nsw.gov.au/data/dataset/nsw-education-nsw-public-schools-master-dataset,2026-02-19,-33.8833,151.1667,invalid,invalid_format
government,Annangrove Public School,Annangrove,2156,9679 1303,,,https://annangrove-p.schools.nsw.gov.au,https://www.data.nsw.gov.au/data/dataset/nsw-education-nsw-public-schools-master-dataset,2026-02-19,-33.7,151.0,invalid,invalid_format
government,Anson Street School,Orange,2800,6362 4563,,,https://ansonst-s.schools.nsw.gov.au,https://www.data.nsw.gov.au/data/dataset/nsw-education-nsw-public-schools-master-dataset,2026-02-19,-33.2547,149.156,invalid,invalid_format
government,Anzac Park Public School,Cammeray,2062,9922 3288,,,https://anzacpark-p.schools.nsw.gov.au,https://www.data.nsw.gov.au/data/dataset/nsw-education-nsw-public-schools-master-dataset,2026-02-19,-33.8213,151.2161,invalid,invalid_format
government,Appin Public School,Appin,2560,4631 1220,,,https://appin-p.schools.nsw.gov.au,https://www.data.nsw.gov.au/data/dataset/nsw-education-nsw-public-schools-master-dataset,2026-02-19,-34.05,150.8333,invalid,invalid_format
catholic,Aquinas Catholic College,Menai,2234,(02) 9543 0188,info@aquinasmenai.catholic.edu.au,,https://aquinasmenai.syd.catholic.edu.au,https://www.csnsw.catholic.edu.au/school-finder,2026-02-19,-34.0341,151.0119,valid,ok
government,Arcadia Public School,Arcadia,2159,9653 1207,,,https://arcadia-p.schools.nsw.gov.au,https://www.data.nsw.gov.au/data/dataset/nsw-education-nsw-public-schools-master-dataset,2026-02-19,-33.6155,151.0914,invalid,invalid_format
government,Arcadia Vale Public School,Arcadia Vale,2283,4975 1181,,,https://arcadiaval-p.schools.nsw.gov.au,https://www.data.nsw.gov.au/data/dataset/nsw-education-nsw-public-schools-master-dataset,2026-02-19,-33.0423,151.6116,invalid,invalid_format
independent,Arden Anglican School,Beecroft,2119,+61 2 9484 1146,contact@arden.nsw.edu.au,https://www.arden.nsw.edu.au/,https://www.arden.nsw.edu.au,https://www.isnsw.edu.au/about-independent-schools-nsw/independent-school-finder,2026-02-19,-33.7587,151.0723,valid,ok
independent,Arden Anglican School - Epping Campus,Epping,2121,+61 2 9869 2644,contact@arden.nsw.edu.au,https://www.arden.nsw.edu.au/,https://www.arden.nsw.edu.au,https://www.isnsw.edu.au/about-independent-schools-nsw/independent-school-finder,2026-02-19,-33.7594,151.0925,valid,ok
government,Ardlethan Central School,Ardlethan,2665,6978 2046,,,https://ardlethan-c.schools.nsw.gov.au,https://www.data.nsw.gov.au/data/dataset/nsw-education-nsw-public-schools-master-dataset,2026-02-19,-34.3493,147.2218,invalid,invalid_format
government,Argenton Public School,Argenton,2284,4958 1805,,,https://argenton-p.schools.nsw.gov.au,https://www.data.nsw.gov.au/data/dataset/nsw-education-nsw-public-schools-master-dataset,2026-02-19,-32.9806,151.6184,invalid,invalid_format
government,Ariah Park Central School,Ariah Park,2665,6974 1105,,,https://ariahpark-c.schools.nsw.gov.au,https://www.data.nsw.gov.au/data/dataset/nsw-education-nsw-public-schools-master-dataset,2026-02-19,-34.3493,147.2218,invalid,invalid_format
independent,Arise Christian College,Metford,2323,02 4933 7633,office@arisecc.nsw.edu.au,https://www.arisecc.nsw.edu.au/,https://www.maitlandcs.nsw.edu.au/arise-christian-college/,https://www.isnsw.edu.au/about-independent-schools-nsw/independent-school-finder,2026-02-19,-32.8305,151.5312,valid,ok
independent,Arkana College,Kingsgrove,2208,+61 2 9502 3655,,,https://www.arkana.nsw.edu.au,https://www.isnsw.edu.au/about-independent-schools-nsw/independent-school-finder,2026-02-19,-33.9393,151.0993,invalid,invalid_format
government,Armidale City Public School,Armidale,2350,6772 3420,,,https://armidalec-p.schools.nsw.gov.au,https://www.data.nsw.gov.au/data/dataset/nsw-education-nsw-public-schools-master-dataset,2026-02-19,-30.6152,151.7679,invalid,invalid_format
government,Armidale Secondary College,Armidale,2350,02 6776 7400,,,https://armidale-s.schools.nsw.gov.au,https://www.data.nsw.gov.au/data/dataset/nsw-education-nsw-public-schools-master-dataset,2026-02-19,-30.6152,151.7679,invalid,invalid_format
government,Arncliffe Public School,Arncliffe,2205,9567 5060,,,https://arncliffe-p.schools.nsw.gov.au,https://www.data.nsw.gov.au/data/dataset/nsw-education-nsw-public-schools-master-dataset,2026-02-19,-33.9313,151.1522,invalid,invalid_format
government,Arncliffe West Infants School,Arncliffe,2205,9567 7062,,,https://arncliffew-p.schools.nsw.gov.au,https://www.data.nsw.gov.au/data/dataset/nsw-education-nsw-public-schools-master-dataset,2026-02-19,-33.9313,151.1522,invalid,invalid_format
independent,Arndell Anglican College,Oakville,2765,+61 2 4572 3633,enquiries@arndell.nsw.edu.au,https://www.arndell.nsw.edu.au/search,https://www.arndell.nsw.edu.au,https://www.isnsw.edu.au/about-independent-schools-nsw/independent-school-finder,2026-02-19,-33.5922,150.9198,valid,ok
government,Arndell School,North Ryde,2113,9888 3737,,,https://arndell-s.schools.nsw.gov.au,https://www.data.nsw.gov.au/data/dataset/nsw-education-nsw-public-schools-master-dataset,2026-02-19,-33.7956,151.126,invalid,invalid_format
independent,Arrahman College,Austral,2179,+61 2 8107 6000,admin@arrahmancollege.nsw.edu.au,https://arrahmancollege.nsw.edu.au/,https://www.arrahmancollege.nsw.edu.au,https://www.isnsw.edu.au/about-independent-schools-nsw/independent-school-finder,2026-02-19,-33.9698,150.7967,valid,ok
government,Arranounbai School,Frenchs Forest,2086,9452 3168,,,https://arranoun-s.schools.nsw.gov.au,https://www.data.nsw.gov.au/data/dataset/nsw-education-nsw-public-schools-master-dataset,2026-02-19,-33.7482,151.2232,invalid,invalid_format
government,Artarmon Public School,Artarmon,2064,9411 1950,,,https://artarmon-p.schools.nsw.gov.au,https://www.data.nsw.gov.au/data/dataset/nsw-education-nsw-public-schools-master-dataset,2026-02-19,-33.8167,151.1833,invalid,invalid_format
government,Arthur Phillip High School,Parramatta,2150,8855 8100,,,https://arthurphil-h.schools.nsw.gov.au,https://www.data.nsw.gov.au/data/dataset/nsw-education-nsw-public-schools-master-dataset,2026-02-19,-33.8178,151.0035,invalid,invalid_format
independent,Ascham School,Edgecliff,2027,+61 2 8356 7000,,https://www.ascham.nsw.edu.au,https://www.ascham.nsw.edu.au,https://www.isnsw.edu.au/about-independent-schools-nsw/independent-school-finder,2026-02-19,-33.8667,151.25,invalid,invalid_format
government,Ashbury Public School,Ashbury,2193,9798 4509,,,https://ashbury-p.schools.nsw.gov.au,https://www.data.nsw.gov.au/data/dataset/nsw-education-nsw-public-schools-master-dataset,2026-02-19,-33.8978,151.1196,invalid,invalid_format
government,Ashcroft High School,Ashcroft,2168,9607 8011,,,https://ashcroft-h.schools.nsw.gov.au,https://www.data.nsw.gov.au/data/dataset/nsw-education-nsw-public-schools-master-dataset,2026-02-19,-33.9209,150.8847,invalid,invalid_format
government,Ashcroft Public School,Ashcroft,2168,9607 8202,,,https://ashcroft-p.schools.nsw.gov.au,https://www.data.nsw.gov.au/data/dataset/nsw-education-nsw-public-schools-master-dataset,2026-02-19,-33.9209,150.8847,invalid,invalid_format
government,Ashfield Boys High School,Ashfield,2131,9798 6620,,,https://ashfieldbo-h.schools.nsw.gov.au,https://www.data.nsw.gov.au/data/dataset/nsw-education-nsw-public-schools-master-dataset,2026-02-19,-33.8883,151.1227,invalid,invalid_format
government,Ashfield Public School,Ashfield,2131,9798 4400,,,https://ashfield-p.schools.nsw.gov.au,https://www.data.nsw.gov.au/data/dataset/nsw-education-nsw-public-schools-master-dataset,2026-02-19,-33.8883,151.1227,invalid,invalid_format
government,Ashford Central School,Ashford,2361,6725 4101,,,https://ashford-c.schools.nsw.gov.au,https://www.data.nsw.gov.au/data/dataset/nsw-education-nsw-public-schools-master-dataset,2026-02-19,-29.0479,151.2757,invalid,invalid_format
government,Ashmont Public School,Wagga Wagga,2650,6931 4944,,,https://ashmont-p.schools.nsw.gov.au,https://www.data.nsw.gov.au/data/dataset/nsw-education-nsw-public-schools-master-dataset,2026-02-19,-35.4445,147.608,invalid,invalid_format
government,Ashtonfield Public School,Ashtonfield,2323,4934 3584,,,https://ashtonfield-p.schools.nsw.gov.au,https://www.data.nsw.gov.au/data/dataset/nsw-education-nsw-public-schools-master-dataset,2026-02-19,-32.8305,151.5312,invalid,invalid_format
independent,Aspect Central Coast School (Main site),Terrigal,2260,+61 2 4382 8800,,https://www.autismspectrum.org.au/search,https://www.autismspectrum.org.au,https://www.isnsw.edu.au/about-independent-schools-nsw/independent-school-finder,2026-02-19,-33.4155,151.4456,invalid,invalid_format
independent,Aspect Central Coast School Senior College,Terrigal,2260,,,,,https://www.isnsw.edu.au/about-independent-schools-nsw/independent-school-finder,2026-02-19,-33.4155,151.4456,invalid,invalid_format
independent,"Aspect Central Coast School, East Gosford",East Gosford,2250,,,,,https://www.isnsw.edu.au/about-independent-schools-nsw/independent-school-finder,2026-02-19,-33.205,151.1759,invalid,invalid_format
independent,"Aspect Central Coast School, Noraville",Nan,,,,https://www.autismspectrum.org.au/search,https://www.autismspectrum.org.au,https://www.isnsw.edu.au/about-independent-schools-nsw/independent-school-finder,2026-02-19,,,invalid,invalid_format
independent,"Aspect Central Coast School, Tuggerah",Tuggerah,2259,,,,,https://www.isnsw.edu.au/about-independent-schools-nsw/independent-school-finder,2026-02-19,-33.2323,151.4367,invalid,invalid_format
independent,"Aspect Central Coast School, Woy Woy",Woy Woy South,2256,,,,,https://www.isnsw.edu.au/about-independent-schools-nsw/independent-school-finder,2026-02-19,-33.5444,151.3034,invalid,invalid_format
independent,Aspect Hunter School (Main site),Thornton,2322,+61 2 4922 5900,,https://www.autismspectrum.org.au/search,https://www.autismspectrum.org.au,https://www.isnsw.edu.au/about-independent-schools-nsw/independent-school-finder,2026-02-19,-32.7931,151.6769,invalid,invalid_format
independent,"Aspect Hunter School, Abermain",Nan,,,,,,https://www.isnsw.edu.au/about-independent-schools-nsw/independent-school-finder,2026-02-19,,,invalid,invalid_format
independent,"Aspect Hunter School, Muswellbrook",Muswellbrook,2333,,,,,https://www.isnsw.edu.au/about-independent-schools-nsw/independent-school-finder,2026-02-19,-32.3333,150.5667,invalid,invalid_format
independent,"Aspect Hunter School, Port Macquarie High School",Nan,,,,,,https://www.isnsw.edu.au/about-independent-schools-nsw/independent-school-finder,2026-02-19,,,invalid,invalid_format
independent,"Aspect Hunter School, Port Macquarie Primary",Nan,,,,,,https://www.isnsw.edu.au/about-independent-schools-nsw/independent-school-finder,2026-02-19,,,invalid,invalid_format
independent,"Aspect Hunter School, Tarro",Nan,,,,,,https://www.isnsw.edu.au/about-independent-schools-nsw/independent-school-finder,2026-02-19,,,invalid,invalid_format
independent,"Aspect Hunter School, Waratah West",Nan,,,,,,https://www.isnsw.edu.au/about-independent-schools-nsw/independent-school-finder,2026-02-19,,,invalid,invalid_format
independent,Aspect Macarthur School (Main site),Cobbitty,2570,+61 2 4651 3901,,http://www.autismspectrum.org.au/search,http://www.autismspectrum.org.au,https://www.isnsw.edu.au/about-independent-schools-nsw/independent-school-finder,2026-02-19,-34.0799,150.57,invalid,invalid_format
independent,"Aspect Macarthur School, Airds",Campbelltown,2560,,,,,https://www.isnsw.edu.au/about-independent-schools-nsw/independent-school-finder,2026-02-19,-34.05,150.8333,invalid,invalid_format
independent,"Aspect Macarthur School, Campbelltown",Campbelltown,2560,,,,,https://www.isnsw.edu.au/about-independent-schools-nsw/independent-school-finder,2026-02-19,-34.05,150.8333,invalid,invalid_format
independent,"Aspect Macarthur School, Holsworthy",Holsworthy,2173,+61 2 4651 3901,,http://www.autismspectrum.org.au/search,http://www.autismspectrum.org.au,https://www.isnsw.edu.au/about-independent-schools-nsw/independent-school-finder,2026-02-19,-33.9544,150.9445,invalid,invalid_format
independent,"Aspect Macarthur School, Minto",Minto,2566,+61 2 4651 3901,,http://www.autismspectrum.org.au/search,http://www.autismspectrum.org.au,https://www.isnsw.edu.au/about-independent-schools-nsw/independent-school-finder,2026-02-19,-34.0224,150.8296,invalid,invalid_format
independent,"Aspect Macarthur School, Northern Rivers Coffs Harbour",Coffs Harbour,2450,+61 2 4651 3901,,http://www.autismspectrum.org.au/search,http://www.autismspectrum.org.au,https://www.isnsw.edu.au/about-independent-schools-nsw/independent-school-finder,2026-02-19,-30.1574,153.0958,invalid,invalid_format
independent,"Aspect Macarthur School, West Hoxton",West Hoxton,2171,+61 2 4651 3901,,http://www.autismspectrum.org.au/search,http://www.autismspectrum.org.au,https://www.isnsw.edu.au/about-independent-schools-nsw/independent-school-finder,2026-02-19,-33.8892,150.8514,invalid,invalid_format
independent,Aspect Riverina School (Main site),Albury,2640,+61 2 6057 3777,,http://www.autismspectrum.org.au/search,http://www.autismspectrum.org.au,https://www.isnsw.edu.au/about-independent-schools-nsw/independent-school-finder,2026-02-19,-36.0865,146.9091,invalid,invalid_format
independent,"Aspect Riverina School, Kiewa Street Albury",Albury,2640,+61 2 6040 6826,,http://www.autismspectrum.org.au/search,http://www.autismspectrum.org.au,https://www.isnsw.edu.au/about-independent-schools-nsw/independent-school-finder,2026-02-19,-36.0865,146.9091,invalid,invalid_format
independent,"Aspect Riverina School, Moresby Park Centre",North Albury,2640,,,,,https://www.isnsw.edu.au/about-independent-schools-nsw/independent-school-finder,2026-02-19,-36.0865,146.9091,invalid,invalid_format
independent,"Aspect Riverina School, North Albury",Albury,2640,+61 2 6040 6826,,http://www.autismspectrum.org.au/search,http://www.autismspectrum.org.au,https://www.isnsw.edu.au/about-independent-schools-nsw/independent-school-finder,2026-02-19,-36.0865,146.9091,invalid,invalid_format
independent,"Aspect Riverina School, Wagga",Wagga Wagga,2678,+61 2 6922 5167,,http://www.autismspectrum.org.au/search,http://www.autismspectrum.org.au,https://www.isnsw.edu.au/about-independent-schools-nsw/independent-school-finder,2026-02-19,-35.0608,147.3542,invalid,invalid_format
independent,"Aspect Riverina School, Wagga Wagga",Kooringal,2650,+61 2 6922 5167,,http://www.autismspectrum.org.au/search,http://www.autismspectrum.org.au,https://www.isnsw.edu.au/about-independent-schools-nsw/independent-school-finder,2026-02-19,-35.4445,147.608,invalid,invalid_format
independent,Aspect South Coast School (Main site),Corrimal,2518,+61 2 4285 2393,,http://www.autismspectrum.org.au/search,http://www.autismspectrum.org.au,https://www.isnsw.edu.au/about-independent-schools-nsw/independent-school-finder,2026-02-19,-34.3761,150.9108,invalid,invalid_format
independent,"Aspect South Coast School, Albion Park",Albion Park,2527,,,,,https://www.isnsw.edu.au/about-independent-schools-nsw/independent-school-finder,2026-02-19,-34.5713,150.7757,invalid,invalid_format
independent,"Aspect South Coast School, Barrack Heights",Nan,,,,,,https://www.isnsw.edu.au/about-independent-schools-nsw/independent-school-finder,2026-02-19,,,invalid,invalid_format
independent,"Aspect South Coast School, Bellambi",Nan,,,,,,https://www.isnsw.edu.au/about-independent-schools-nsw/independent-school-finder,2026-02-19,,,invalid,invalid_format
independent,"Aspect South Coast School, Bulli",Bulli,2516,,,,,https://www.isnsw.edu.au/about-independent-schools-nsw/independent-school-finder,2026-02-19,-34.3383,150.9135,invalid,invalid_format
independent,"Aspect South Coast School, Farmborough Heights",Unanderra,2526,,,,,https://www.isnsw.edu.au/about-independent-schools-nsw/independent-school-finder,2026-02-19,-34.4455,150.823,invalid,invalid_format
independent,"Aspect South Coast School, Saints Peter and Paul Kiama",Kiama,2533,,,,,https://www.isnsw.edu.au/about-independent-schools-nsw/independent-school-finder,2026-02-19,-34.6701,150.8231,invalid,invalid_format
independent,"Aspect South Coast School, Unanderra",Unanderra,2526,,,,,https://www.isnsw.edu.au/about-independent-schools-nsw/independent-school-finder,2026-02-19,-34.4455,150.823,invalid,invalid_format
independent,"Aspect South Coast School, Wollongong University",Wollongong,2522,,,,,https://www.isnsw.edu.au/about-independent-schools-nsw/independent-school-finder,2026-02-19,-34.5321,150.8196,invalid,invalid_format
independent,Aspect South East Sydney School (Main site),Peakhurst Heights,2210,+61 2 9534 4758,,https://www.autismspectrum.org.au/search,https://www.autismspectrum.org.au/,https://www.isnsw.edu.au/about-independent-schools-nsw/independent-school-finder,2026-02-19,-33.9827,151.0418,invalid,invalid_format
independent,"Aspect South East Sydney School, Auburn",Nan,,,,,,https://www.isnsw.edu.au/about-independent-schools-nsw/independent-school-finder,2026-02-19,,,invalid,invalid_format
independent,"Aspect South East Sydney School, Belfield",Nan,,,,,,https://www.isnsw.edu.au/about-independent-schools-nsw/independent-school-finder,2026-02-19,,,invalid,invalid_format
independent,"Aspect South East Sydney School, Caringbah",Nan,,,,,,https://www.isnsw.edu.au/about-independent-schools-nsw/independent-school-finder,2026-02-19,,,invalid,invalid_format
independent,"Aspect South East Sydney School, Croydon",Croydon,2132,+61 2 9534 4758,,https://www.autismspectrum.org.au/search,https://www.autismspectrum.org.au/,https://www.isnsw.edu.au/about-independent-schools-nsw/independent-school-finder,2026-02-19,-33.8833,151.1167,invalid,invalid_format
independent,"Aspect South East Sydney School, Hurstville",Nan,,,,,,https://www.isnsw.edu.au/about-independent-schools-nsw/independent-school-finder,2026-02-19,,,invalid,invalid_format
independent,"Aspect South East Sydney School, Kareela",Nan,,,,,,https://www.isnsw.edu.au/about-independent-schools-nsw/independent-school-finder,2026-02-19,,,invalid,invalid_format
independent,"Aspect South East Sydney School, Leichhardt",Nan,,,,,,https://www.isnsw.edu.au/about-independent-schools-nsw/independent-school-finder,2026-02-19,,,invalid,invalid_format
independent,"Aspect South East Sydney School, Loftus",Loftus,2232,,,,,https://www.isnsw.edu.au/about-independent-schools-nsw/independent-school-finder,2026-02-19,-34.0244,151.0386,invalid,invalid_format
independent,"Aspect South East Sydney School, Maroubra",Nan,,,,,,https://www.isnsw.edu.au/about-independent-schools-nsw/independent-school-finder,2026-02-19,,,invalid,invalid_format
independent,"Aspect South East Sydney School, Marrickville",Marrickville,2204,+61 2 9560 0249,,http://www.autismspectrum.org.au/search,http://www.autismspectrum.org.au,https://www.isnsw.edu.au/about-independent-schools-nsw/independent-school-finder,2026-02-19,-33.9074,151.1555,invalid,invalid_format
independent,"Aspect South East Sydney School, Menai",Nan,,,,,,https://www.isnsw.edu.au/about-independent-schools-nsw/independent-school-finder,2026-02-19,,,invalid,invalid_format
independent,"Aspect South East Sydney School, Regents Park",Nan,,,,https://www.autismspectrum.org.au/search,https://www.autismspectrum.org.au/,https://www.isnsw.edu.au/about-independent-schools-nsw/independent-school-finder,2026-02-19,,,invalid,invalid_format
independent,Aspect Vern Barnett School (Main site),Forestville,2087,+61 2 9454 8359,,,https://www.autismspectrum.org.au/school/aspect-vern-barnett-school-0,https://www.isnsw.edu.au/about-independent-schools-nsw/independent-school-finder,2026-02-19,-33.7745,151.2203,invalid,invalid_format
independent,"Aspect Vern Barnett School, Eastwood",Nan,,,,,,https://www.isnsw.edu.au/about-independent-schools-nsw/independent-school-finder,2026-02-19,,,invalid,invalid_format
independent,"Aspect Vern Barnett School, Forestville",Nan,,,,,,https://www.isnsw.edu.au/about-independent-schools-nsw/independent-school-finder,2026-02-19,,,invalid,invalid_format
independent,"Aspect Vern Barnett School, Lane Cove",Nan,,,,,,https://www.isnsw.edu.au/about-independent-schools-nsw/independent-school-finder,2026-02-19,,,invalid,invalid_format
independent,"Aspect Vern Barnett School, Mona Vale",Nan,,,,,,https://www.isnsw.edu.au/about-independent-schools-nsw/independent-school-finder,2026-02-19,,,invalid,invalid_format
independent,"Aspect Vern Barnett School, St Ives",Nan,,,,,,https://www.isnsw.edu.au/about-independent-schools-nsw/independent-school-finder,2026-02-19,,,invalid,invalid_format
independent,Aspect Western Sydney School (Main site),Wetherill Park,2164,+61 2 8786 3000,,https://www.autismspectrum.org.au/search,https://www.autismspectrum.org.au,https://www.isnsw.edu.au/about-independent-schools-nsw/independent-school-finder,2026-02-19,-33.8414,150.9605,invalid,invalid_format
independent,"Aspect Western Sydney School, Blacktown",Nan,,,,,,https://www.isnsw.edu.au/about-independent-schools-nsw/independent-school-finder,2026-02-19,,,invalid,invalid_format
independent,"Aspect Western Sydney School, Bourke Street, Richmond",Nan,,,,,,https://www.isnsw.edu.au/about-independent-schools-nsw/independent-school-finder,2026-02-19,,,invalid,invalid_format
independent,"Aspect Western Sydney School, Castle Hill",Nan,,,,,,https://www.isnsw.edu.au/about-independent-schools-nsw/independent-school-finder,2026-02-19,,,invalid,invalid_format
independent,"Aspect Western Sydney School, Hills Shire",Gables,2765,,,https://www.aspect.org.au/search,https://www.aspect.org.au/our-services/going-to-school/hills-shire-school,https://www.isnsw.edu.au/about-independent-schools-nsw/independent-school-finder,2026-02-19,-33.5922,150.9198,invalid,invalid_format
independent,"Aspect Western Sydney School, Kemps Creek - Emmaus",Nan,,,,,,https://www.isnsw.edu.au/about-independent-schools-nsw/independent-school-finder,2026-02-19,,,invalid,invalid_format
independent,"Aspect Western Sydney School, Kemps Creek - Trinity",Nan,,,,,,https://www.isnsw.edu.au/about-independent-schools-nsw/independent-school-finder,2026-02-19,,,invalid,invalid_format
independent,"Aspect Western Sydney School, Lawson",Nan,,,,,,https://www.isnsw.edu.au/about-independent-schools-nsw/independent-school-finder,2026-02-19,,,invalid,invalid_format
independent,"Aspect Western Sydney School, Quakers Road, Marayong",Marayong,2148,,,,,https://www.isnsw.edu.au/about-independent-schools-nsw/independent-school-finder,2026-02-19,-33.7482,150.8927,invalid,invalid_format
independent,"Aspect Western Sydney School, Schofields",Schofields,,,,,,https://www.isnsw.edu.au/about-independent-schools-nsw/independent-school-finder,2026-02-19,,,invalid,invalid_format
independent,"Aspect Western Sydney School, Smithfield",Nan,,,,,,https://www.isnsw.edu.au/about-independent-schools-nsw/independent-school-finder,2026-02-19,,,invalid,invalid_format
independent,"Aspect Western Sydney School, Springwood",Nan,,,,,,https://www.isnsw.edu.au/about-independent-schools-nsw/independent-school-finder,2026-02-19,,,invalid,invalid_format
independent,"Aspect Western Sydney School, St Andrews College Senior Campus",Marayong,2148,,,,,https://www.isnsw.edu.au/about-independent-schools-nsw/independent-school-finder,2026-02-19,-33.7482,150.8927,invalid,invalid_format
independent,"Aspect Western Sydney School, St Joseph's",Nan,,,,,,https://www.isnsw.edu.au/about-independent-schools-nsw/independent-school-finder,2026-02-19,,,invalid,invalid_format
independent,"Aspect Western Sydney School, St Thomas Aquinas",Springwood,2777,,,,,https://www.isnsw.edu.au/about-independent-schools-nsw/independent-school-finder,2026-02-19,-33.6985,150.6346,invalid,invalid_format
independent,"Aspect Western Sydney School, Windsor Street, Richmond",Nan,,,,,,https://www.isnsw.edu.au/about-independent-schools-nsw/independent-school-finder,2026-02-19,,,invalid,invalid_format
government,Asquith High School,Asquith,2077,9477 6411,,,https://asquith-h.schools.nsw.gov.au,https://www.data.nsw.gov.au/data/dataset/nsw-education-nsw-public-schools-master-dataset,2026-02-19,-33.7024,151.0993,invalid,invalid_format
government,Asquith Public School,Asquith,2077,9477 1258,,,https://asquith-p.schools.nsw.gov.au,https://www.data.nsw.gov.au/data/dataset/nsw-education-nsw-public-schools-master-dataset,2026-02-19,-33.7024,151.0993,invalid,invalid_format
government,Athelstane Public School,Arncliffe,2205,9567 3550,,,https://athelstane-p.schools.nsw.gov.au,https://www.data.nsw.gov.au/data/dataset/nsw-education-nsw-public-schools-master-dataset,2026-02-19,-33.9313,151.1522,invalid,invalid_format
government,Attunga Public School,Attunga,2345,6769 5554,,,https://attunga-p.schools.nsw.gov.au,https://www.data.nsw.gov.au/data/dataset/nsw-education-nsw-public-schools-master-dataset,2026-02-19,-30.8565,150.9038,invalid,invalid_format
government,Auburn Girls High School,Auburn,2144,9649 6949,,,https://auburng-h.schools.nsw.gov.au/,https://www.data.nsw.gov.au/data/dataset/nsw-education-nsw-public-schools-master-dataset,2026-02-19,-33.85,151.0333,invalid,invalid_format
government,Auburn North Public School,Auburn,2144,9748 1036,,,https://auburnnth-p.schools.nsw.gov.au,https://www.data.nsw.gov.au/data/dataset/nsw-education-nsw-public-schools-master-dataset,2026-02-19,-33.85,151.0333,invalid,invalid_format
government,Auburn Public School,Auburn,2144,02 9646 2200,,,https://auburn-p.schools.nsw.gov.au,https://www.data.nsw.gov.au/data/dataset/nsw-education-nsw-public-schools-master-dataset,2026-02-19,-33.85,151.0333,invalid,invalid_format
government,Auburn West Public School,Auburn,2144,9649 6774,,,https://auburnwest-p.schools.nsw.gov.au,https://www.data.nsw.gov.au/data/dataset/nsw-education-nsw-public-schools-master-dataset,2026-02-19,-33.85,151.0333,invalid,invalid_format
government,Aurora College,Lindfield,2070,1300 287 629,,,https://aurora.schools.nsw.gov.au,https://www.data.nsw.gov.au/data/dataset/nsw-education-nsw-public-schools-master-dataset,2026-02-19,-33.7833,151.1667,invalid,invalid_format
independent,Aurora Southern Highlands Steiner School,Bowral,2575,+61 2 4862 2300,,,https://www.aurorasteiner.nsw.edu.au,https://www.isnsw.edu.au/about-independent-schools-nsw/independent-school-finder,2026-02-19,-34.4274,150.484,invalid,invalid_format
government,Austinmer Public School,Austinmer,2515,4267 1311,,,https://austinmer-p.schools.nsw.gov.au,https://www.data.nsw.gov.au/data/dataset/nsw-education-nsw-public-schools-master-dataset,2026-02-19,-34.261,150.9695,invalid,invalid_format
government,Austral Public School,Austral,2179,9606 0312,,,https://austral-p.schools.nsw.gov.au,https://www.data.nsw.gov.au/data/dataset/nsw-education-nsw-public-schools-master-dataset,2026-02-19,-33.9698,150.7967,invalid,invalid_format
government,Australia Street Infants School,Newtown,2042,9557 5377,,,https://australist-p.schools.nsw.gov.au,https://www.data.nsw.gov.au/data/dataset/nsw-education-nsw-public-schools-master-dataset,2026-02-19,-33.9005,151.1731,invalid,invalid_format
independent,Australian Christian College - Distance Education,Riverstone,2765,,,,https://www.acc.edu.au/distance-education/,https://www.isnsw.edu.au/about-independent-schools-nsw/independent-school-finder,2026-02-19,-33.5922,150.9198,invalid,invalid_format
independent,Australian Christian College - Marsden Park,Riverstone,2765,02 9421 7111,,,http://marsdenpark.acc.edu.au/,https://www.isnsw.edu.au/about-independent-schools-nsw/independent-school-finder,2026-02-19,-33.5922,150.9198,invalid,invalid_format
independent,Australian Christian College - Singleton,Singleton,2330,+61 2 6572 1011,,,http://singleton.acc.edu.au,https://www.isnsw.edu.au/about-independent-schools-nsw/independent-school-finder,2026-02-19,-32.6377,151.093,invalid,invalid_format
independent,"Australian International Academy, Kellyville",North Kellyville,2155,+61 2 8801 3100,adminkellyville@aia.nsw.edu.au,https://www.aia.nsw.edu.au/,https://www.aia.nsw.edu.au,https://www.isnsw.edu.au/about-independent-schools-nsw/independent-school-finder,2026-02-19,-33.6999,150.9411,valid,ok
independent,"Australian International Academy, Strathfield",Strathfield,2135,+61 2 9642 0104,adminnsw@aia.nsw.edu.au,https://strathfield.aia.nsw.edu.au/,https://strathfield.aia.nsw.edu.au/,https://www.isnsw.edu.au/about-independent-schools-nsw/independent-school-finder,2026-02-19,-33.881,151.0799,valid,ok
independent,Australian Islamic College of Sydney,Mount Druitt,2770,+61 2 9933 6900,info@aics.nsw.edu.au,https://www.aics.nsw.edu.au,https://www.aics.nsw.edu.au,https://www.isnsw.edu.au/about-independent-schools-nsw/independent-school-finder,2026-02-19,-33.7441,150.8064,valid,ok
independent,Australian Islamic College of Sydney Senior School,Rooty Hill,2766,,info@aics.nsw.edu.au,https://www.aics.nsw.edu.au/,https://www.aics.nsw.edu.au/,https://www.isnsw.edu.au/about-independent-schools-nsw/independent-school-finder,2026-02-19,-33.8063,150.8612,valid,ok
independent,Australian Performing Arts Grammar School,Glebe,2037,02 9518 5123,,,http://www.apgs.nsw.edu.au,https://www.isnsw.edu.au/about-independent-schools-nsw/independent-school-finder,2026-02-19,-33.8788,151.1843,invalid,invalid_format
government,Avalon Public School,Avalon Beach,2107,9973 1439,,,https://avalon-p.schools.nsw.gov.au,https://www.data.nsw.gov.au/data/dataset/nsw-education-nsw-public-schools-master-dataset,2026-02-19,-33.6342,151.3234,invalid,invalid_format
government,Avoca Beach Public School,Avoca Beach,2251,4382 1416,,,https://avocabch-p.schools.nsw.gov.au,https://www.data.nsw.gov.au/data/dataset/nsw-education-nsw-public-schools-master-dataset,2026-02-19,-33.4976,151.3808,invalid,invalid_format
independent,Avondale School,Cooranbong,2265,+61 2 4977 0200,,https://www.avondaleschool.nsw.edu.au/search,https://www.avondaleschool.nsw.edu.au,https://www.isnsw.edu.au/about-independent-schools-nsw/independent-school-finder,2026-02-19,-33.0667,151.4167,invalid,invalid_format
government,Awaba Public School,Awaba,2283,4959 2502,,,https://awaba-p.schools.nsw.gov.au,https://www.data.nsw.gov.au/data/dataset/nsw-education-nsw-public-schools-master-dataset,2026-02-19,-33.0423,151.6116,invalid,invalid_format
government,Awabakal Environmental Education Centre,Shortland,2307,4944 8233,,,https://awabakal-e.schools.nsw.gov.au/,https://www.data.nsw.gov.au/data/dataset/nsw-education-nsw-public-schools-master-dataset,2026-02-19,-32.8788,151.691,invalid,invalid_format
government,Balarang Public School,Oak Flats,2529,4256 1846,,,https://balarang-p.schools.nsw.gov.au,https://www.data.nsw.gov.au/data/dataset/nsw-education-nsw-public-schools-master-dataset,2026-02-19,-34.5814,150.8435,invalid,invalid_format
government,Bald Blair Public School,Guyra,2365,6779 1578,,,https://baldblair-p.schools.nsw.gov.au,https://www.data.nsw.gov.au/data/dataset/nsw-education-nsw-public-schools-master-dataset,2026-02-19,-30.1333,151.8667,invalid,invalid_format
government,Bald Face Public School,Blakehurst,2221,9546 1565,,,https://baldface-p.schools.nsw.gov.au,https://www.data.nsw.gov.au/data/dataset/nsw-education-nsw-public-schools-master-dataset,2026-02-19,-33.9867,151.1173,invalid,invalid_format
government,Balgowlah Heights Public School,Balgowlah,2093,9948 2225,,,https://balgowlaht-p.schools.nsw.gov.au,https://www.data.nsw.gov.au/data/dataset/nsw-education-nsw-public-schools-master-dataset,2026-02-19,-33.8066,151.2624,invalid,invalid_format
government,Balgowlah North Public School,North Balgowlah,2093,9949 4499,,,https://balgowlahn-p.schools.nsw.gov.au,https://www.data.nsw.gov.au/data/dataset/nsw-education-nsw-public-schools-master-dataset,2026-02-19,-33.8066,151.2624,invalid,invalid_format
government,Balgownie Public School,Balgownie,2519,4284 4245,,,https://balgownie-p.schools.nsw.gov.au,https://www.data.nsw.gov.au/data/dataset/nsw-education-nsw-public-schools-master-dataset,2026-02-19,-34.3887,150.8938,invalid,invalid_format
government,Ballimore Public School,Ballimore,2830,6886 5151,,,https://ballimore-p.schools.nsw.gov.au,https://www.data.nsw.gov.au/data/dataset/nsw-education-nsw-public-schools-master-dataset,2026-02-19,-32.2667,148.6833,invalid,invalid_format
government,Ballina Coast High School,Ballina,2478,02 6681 0100,,,https://ballina-h.schools.nsw.gov.au,https://www.data.nsw.gov.au/data/dataset/nsw-education-nsw-public-schools-master-dataset,2026-02-19,-28.8571,153.5874,invalid,invalid_format
government,Ballina Public School,Ballina,2478,6686 2205,,,https://ballina-p.schools.nsw.gov.au,https://www.data.nsw.gov.au/data/dataset/nsw-education-nsw-public-schools-master-dataset,2026-02-19,-28.8571,153.5874,invalid,invalid_format
government,Balmain Public School,Balmain,2041,9818 1177,,,https://balmain-p.schools.nsw.gov.au,https://www.data.nsw.gov.au/data/dataset/nsw-education-nsw-public-schools-master-dataset,2026-02-19,-33.8548,151.1833,invalid,invalid_format
government,Balranald Central School,Balranald,2715,03 5020 2222,,,https://balranald-c.schools.nsw.gov.au,https://www.data.nsw.gov.au/data/dataset/nsw-education-nsw-public-schools-master-dataset,2026-02-19,-33.5036,143.3112,invalid,invalid_format
government,Bangalow Public School,Bangalow,2479,6687 1434,,,https://bangalow-p.schools.nsw.gov.au,https://www.data.nsw.gov.au/data/dataset/nsw-education-nsw-public-schools-master-dataset,2026-02-19,-28.7275,153.469,invalid,invalid_format
government,Bangor Public School,Bangor,2234,9543 2244,,,https://bangor-p.schools.nsw.gov.au,https://www.data.nsw.gov.au/data/dataset/nsw-education-nsw-public-schools-master-dataset,2026-02-19,-34.0341,151.0119,invalid,invalid_format
government,Banks Public School,St Clair,2759,9670 6506,,,https://banks-p.schools.nsw.gov.au,https://www.data.nsw.gov.au/data/dataset/nsw-education-nsw-public-schools-master-dataset,2026-02-19,-33.813,150.7977,invalid,invalid_format
government,Banksia Road Public School,Greenacre,2190,9707 3423,,,https://banksiard-p.schools.nsw.gov.au,https://www.data.nsw.gov.au/data/dataset/nsw-education-nsw-public-schools-master-dataset,2026-02-19,-33.9003,151.0556,invalid,invalid_format
government,Banksmeadow Public School,Botany,2019,9316 9608,,,https://banksmeado-p.schools.nsw.gov.au,https://www.data.nsw.gov.au/data/dataset/nsw-education-nsw-public-schools-master-dataset,2026-02-19,-33.9566,151.2096,invalid,invalid_format
government,Bankstown Girls High School,Bankstown,2200,9709 6788,,,https://bankstowng-h.schools.nsw.gov.au,https://www.data.nsw.gov.au/data/dataset/nsw-education-nsw-public-schools-master-dataset,2026-02-19,-33.9196,151.0308,invalid,invalid_format
government,Bankstown Hospital School,Bankstown,2200,9722 8063,,,https://banksthos-s.schools.nsw.gov.au,https://www.data.nsw.gov.au/data/dataset/nsw-education-nsw-public-schools-master-dataset,2026-02-19,-33.9196,151.0308,invalid,invalid_format
government,Bankstown North Public School,Bankstown,2200,9709 5506,,,https://bankstownn-p.schools.nsw.gov.au,https://www.data.nsw.gov.au/data/dataset/nsw-education-nsw-public-schools-master-dataset,2026-02-19,-33.9196,151.0308,invalid,invalid_format
government,Bankstown Public School,Bankstown,2200,9796 2120,,,https://bankstown-p.schools.nsw.gov.au,https://www.data.nsw.gov.au/data/dataset/nsw-education-nsw-public-schools-master-dataset,2026-02-19,-33.9196,151.0308,invalid,invalid_format
government,Bankstown Senior College,Bankstown,2200,9707 3288,,,https://bankstowns-h.schools.nsw.gov.au,https://www.data.nsw.gov.au/data/dataset/nsw-education-nsw-public-schools-master-dataset,2026-02-19,-33.9196,151.0308,invalid,invalid_format
government,Bankstown South Infants School,Bankstown,2200,9790 6176,,,https://bankstowsi-p.schools.nsw.gov.au,https://www.data.nsw.gov.au/data/dataset/nsw-education-nsw-public-schools-master-dataset,2026-02-19,-33.9196,151.0308,invalid,invalid_format
government,Bankstown West Public School,Bankstown,2200,9790 6158,,,https://bankstownw-p.schools.nsw.gov.au,https://www.data.nsw.gov.au/data/dataset/nsw-education-nsw-public-schools-master-dataset,2026-02-19,-33.9196,151.0308,invalid,invalid_format
government,Banora Point High School,Banora Point,2486,07 5513 1960,,,https://banorapnt-h.schools.nsw.gov.au,https://www.data.nsw.gov.au/data/dataset/nsw-education-nsw-public-schools-master-dataset,2026-02-19,-28.2383,153.5008,invalid,invalid_format
government,Banora Point Public School,Banora Point,2486,07 5524 1444,,,https://banorapt-p.schools.nsw.gov.au,https://www.data.nsw.gov.au/data/dataset/nsw-education-nsw-public-schools-master-dataset,2026-02-19,-28.2383,153.5008,invalid,invalid_format
government,Baradine Central School,Baradine,2396,6843 1805,,,https://baradine-c.schools.nsw.gov.au,https://www.data.nsw.gov.au/data/dataset/nsw-education-nsw-public-schools-master-dataset,2026-02-19,-31.1467,148.9934,invalid,invalid_format
government,Bardia Public School,Bardia,2565,9605 2459,,,https://bardia-p.schools.nsw.gov.au,https://www.data.nsw.gov.au/data/dataset/nsw-education-nsw-public-schools-master-dataset,2026-02-19,-34.0,150.8667,invalid,invalid_format
government,Bardwell Park Infants School,Bardwell Park,2207,9567 8754,,,https://bardwelpki-p.schools.nsw.gov.au,https://www.data.nsw.gov.au/data/dataset/nsw-education-nsw-public-schools-master-dataset,2026-02-19,-33.9353,151.1257,invalid,invalid_format
government,Barellan Central School,Barellan,2665,6963 9202,,,https://barellan-c.schools.nsw.gov.au,https://www.data.nsw.gov.au/data/dataset/nsw-education-nsw-public-schools-master-dataset,2026-02-19,-34.3493,147.2218,invalid,invalid_format
government,Bargo Public School,Bargo,2574,4684 1396,,,https://bargo-p.schools.nsw.gov.au,https://www.data.nsw.gov.au/data/dataset/nsw-education-nsw-public-schools-master-dataset,2026-02-19,-34.293,150.5781,invalid,invalid_format
government,Barham High School,Barham,2732,03 5453 2322,,,https://barham-h.schools.nsw.gov.au,https://www.data.nsw.gov.au/data/dataset/nsw-education-nsw-public-schools-master-dataset,2026-02-19,-35.5618,144.2684,invalid,invalid_format
government,Barham Public School,Barham,2732,03 5453 2133,,,https://barham-p.schools.nsw.gov.au,https://www.data.nsw.gov.au/data/dataset/nsw-education-nsw-public-schools-master-dataset,2026-02-19,-35.5618,144.2684,invalid,invalid_format
independent,Barker College,Hornsby,2077,+61 2 8438 7999,,http://www.barker.nsw.edu.au/search-result/,http://www.barker.nsw.edu.au,https://www.isnsw.edu.au/about-independent-schools-nsw/independent-school-finder,2026-02-19,-33.7024,151.0993,invalid,invalid_format
independent,Barker College - Waitara Campus,Waitara,2077,02 9847 8399,,http://www.barker.nsw.edu.au/search-result/,http://www.barker.nsw.edu.au,https://www.isnsw.edu.au/about-independent-schools-nsw/independent-school-finder,2026-02-19,-33.7024,151.0993,invalid,invalid_format
government,Barkers Vale Public School,Wadeville,2474,6689 7202,,,https://barkersval-p.schools.nsw.gov.au,https://www.data.nsw.gov.au/data/dataset/nsw-education-nsw-public-schools-master-dataset,2026-02-19,-28.5772,152.761,invalid,invalid_format
government,Barmedman Public School,Barmedman,2668,6976 2128,,,https://barmedman-p.schools.nsw.gov.au,https://www.data.nsw.gov.au/data/dataset/nsw-education-nsw-public-schools-master-dataset,2026-02-19,-34.1449,147.3873,invalid,invalid_format
government,Barnier Public School,Quakers Hill,2763,9837 1600,,,https://barnier-p.schools.nsw.gov.au,https://www.data.nsw.gov.au/data/dataset/nsw-education-nsw-public-schools-master-dataset,2026-02-19,-33.7333,150.8833,invalid,invalid_format
government,Barnsley Public School,Barnsley,2278,4953 2976,,,https://barnsley-p.schools.nsw.gov.au,https://www.data.nsw.gov.au/data/dataset/nsw-education-nsw-public-schools-master-dataset,2026-02-19,-32.9341,151.556,invalid,invalid_format
government,Barooga Public School,Barooga,3644,03 5873 4242,,,https://barooga-p.schools.nsw.gov.au,https://www.data.nsw.gov.au/data/dataset/nsw-education-nsw-public-schools-master-dataset,2026-02-19,-35.906,145.6958,invalid,invalid_format
government,Barraba Central School,Barraba,2347,6782 1104,,,https://barraba-c.schools.nsw.gov.au,https://www.data.nsw.gov.au/data/dataset/nsw-education-nsw-public-schools-master-dataset,2026-02-19,-30.2195,150.7882,invalid,invalid_format
government,Barrack Heights Public School,Barrack Heights,2528,4296 4222,,,https://barrackht-p.schools.nsw.gov.au,https://www.data.nsw.gov.au/data/dataset/nsw-education-nsw-public-schools-master-dataset,2026-02-19,-34.5626,150.8709,invalid,invalid_format
government,Barramurra Public School,Oran Park,2570,02 4645 3800,,,https://barramurra-p.schools.nsw.gov.au,https://www.data.nsw.gov.au/data/dataset/nsw-education-nsw-public-schools-master-dataset,2026-02-19,-34.0799,150.57,invalid,invalid_format
government,Barrenjoey High School,Avalon,2107,9918 8811,,,https://barrenjoey-h.schools.nsw.gov.au,https://www.data.nsw.gov.au/data/dataset/nsw-education-nsw-public-schools-master-dataset,2026-02-19,-33.6342,151.3234,invalid,invalid_format
independent,Barrenjoey Montessori School,Avalon,2107,02 9973 1422,,http://www.barrenjoeymontessori.com.au/contact,http://www.barrenjoeymontessori.com.au,https://www.isnsw.edu.au/about-independent-schools-nsw/independent-school-finder,2026-02-19,-33.6342,151.3234,invalid,invalid_format
government,Barrington Public School,Barrington,2422,6558 4258,,,https://barrington-p.schools.nsw.gov.au,https://www.data.nsw.gov.au/data/dataset/nsw-education-nsw-public-schools-master-dataset,2026-02-19,-32.0177,152.0269,invalid,invalid_format
government,Barwon Learning Centre,Moree,2400,6751 1573,,,https://barwonlc-s.schools.nsw.gov.au,https://www.data.nsw.gov.au/data/dataset/nsw-education-nsw-public-schools-master-dataset,2026-02-19,-29.4628,149.8416,invalid,invalid_format
government,Baryulgil Public School,Baryulgil,2460,6647 2124,,,https://baryulgil-p.schools.nsw.gov.au,https://www.data.nsw.gov.au/data/dataset/nsw-education-nsw-public-schools-master-dataset,2026-02-19,-28.4277,153.378,invalid,invalid_format
government,Bass High School,Bass Hill,2197,9726 3644,,,https://bass-h.schools.nsw.gov.au,https://www.data.nsw.gov.au/data/dataset/nsw-education-nsw-public-schools-master-dataset,2026-02-19,-33.8986,150.9954,invalid,invalid_format
government,Bass Hill Public School,Bass Hill,2197,9644 3431,,,https://basshill-p.schools.nsw.gov.au,https://www.data.nsw.gov.au/data/dataset/nsw-education-nsw-public-schools-master-dataset,2026-02-19,-33.8986,150.9954,invalid,invalid_format
government,Bateau Bay Public School,Bateau Bay,2261,4332 8000,,,https://bateaubay-p.schools.nsw.gov.au,https://www.data.nsw.gov.au/data/dataset/nsw-education-nsw-public-schools-master-dataset,2026-02-19,-33.35,151.4333,invalid,invalid_format
government,Batemans Bay High School,Batehaven,2536,4478 3600,,,https://batemansba-h.schools.nsw.gov.au,https://www.data.nsw.gov.au/data/dataset/nsw-education-nsw-public-schools-master-dataset,2026-02-19,-35.637,150.3036,invalid,invalid_format
government,Batemans Bay Public School,Surfside,2536,4472 4059,,,https://batemansba-p.schools.nsw.gov.au,https://www.data.nsw.gov.au/data/dataset/nsw-education-nsw-public-schools-master-dataset,2026-02-19,-35.637,150.3036,invalid,invalid_format
government,Bates Drive School,Kareela,2232,9521 6049,,,https://batesdrive-s.schools.nsw.gov.au,https://www.data.nsw.gov.au/data/dataset/nsw-education-nsw-public-schools-master-dataset,2026-02-19,-34.0244,151.0386,invalid,invalid_format
government,Bathurst Public School,Bathurst,2795,6331 3923,,,https://bathurst-p.schools.nsw.gov.au,https://www.data.nsw.gov.au/data/dataset/nsw-education-nsw-public-schools-master-dataset,2026-02-19,-33.4229,149.5328,invalid,invalid_format
government,Bathurst South Public School,Bathurst,2795,6331 1297,,,https://bathursts-p.schools.nsw.gov.au,https://www.data.nsw.gov.au/data/dataset/nsw-education-nsw-public-schools-master-dataset,2026-02-19,-33.4229,149.5328,invalid,invalid_format
government,Bathurst West Public School,Bathurst,2795,6331 1142,,,https://bathurstw-p.schools.nsw.gov.au,https://www.data.nsw.gov.au/data/dataset/nsw-education-nsw-public-schools-master-dataset,2026-02-19,-33.4229,149.5328,invalid,invalid_format
government,Batlow Central School,Batlow,2730,6949 1208,,,https://batlow-c.schools.nsw.gov.au,https://www.data.nsw.gov.au/data/dataset/nsw-education-nsw-public-schools-master-dataset,2026-02-19,-35.5494,148.0982,invalid,invalid_format
government,Baulkham Hills High School,Baulkham Hills,2153,9639 8699,,,https://baulkham-h.schools.nsw.gov.au,https://www.data.nsw.gov.au/data/dataset/nsw-education-nsw-public-schools-master-dataset,2026-02-19,-33.7588,150.9929,invalid,invalid_format
government,Baulkham Hills North Public School,Baulkham Hills,2153,9639 6936,,,https://baulkhamn-p.schools.nsw.gov.au,https://www.data.nsw.gov.au/data/dataset/nsw-education-nsw-public-schools-master-dataset,2026-02-19,-33.7588,150.9929,invalid,invalid_format
government,Bayanami Public School,Parramatta,2150,02 9890 8169,,,https://bayanami-p.schools.nsw.gov.au,https://www.data.nsw.gov.au/data/dataset/nsw-education-nsw-public-schools-master-dataset,2026-02-19,-33.8178,151.0035,invalid,invalid_format
government,Bayside High School,Kogarah,2217,02 8566 2200,,,https://bayside-h.schools.nsw.gov.au/,https://www.data.nsw.gov.au/data/dataset/nsw-education-nsw-public-schools-master-dataset,2026-02-19,-33.9795,151.1212,invalid,invalid_format
government,Beacon Hill Public School,Beacon Hill,2100,9451 6328,,,https://beaconhill-p.schools.nsw.gov.au,https://www.data.nsw.gov.au/data/dataset/nsw-education-nsw-public-schools-master-dataset,2026-02-19,-33.7666,151.2498,invalid,invalid_format
government,Beaumont Hills Public School,Beaumont Hills,2155,8824 6470,,,https://beaumonthi-p.schools.nsw.gov.au,https://www.data.nsw.gov.au/data/dataset/nsw-education-nsw-public-schools-master-dataset,2026-02-19,-33.6999,150.9411,invalid,invalid_format
government,Beaumont Road Public School,Killara,2071,9498 3607,,,https://beaumontrd-p.schools.nsw.gov.au,https://www.data.nsw.gov.au/data/dataset/nsw-education-nsw-public-schools-master-dataset,2026-02-19,-33.766,151.1621,invalid,invalid_format
government,Beauty Point Public School,Mosman,2088,9969 4260,,,https://beautypt-p.schools.nsw.gov.au,https://www.data.nsw.gov.au/data/dataset/nsw-education-nsw-public-schools-master-dataset,2026-02-19,-33.839,151.2396,invalid,invalid_format
catholic,Bede Polding College,South Windsor,2756,(02) 4560 2900,bedepolding@parra.catholic.edu.au,,https://www.bedepoldingwindsor.catholic.edu.au,https://www.csnsw.catholic.edu.au/school-finder,2026-02-19,-33.6586,150.8108,valid,ok
government,Bedgerabong Public School,Bedgerabong,2871,6857 1185,,,https://bedgerebon-p.schools.nsw.gov.au,https://www.data.nsw.gov.au/data/dataset/nsw-education-nsw-public-schools-master-dataset,2026-02-19,-33.2652,147.3846,invalid,invalid_format
government,Beechwood Public School,Wauchope,2446,6585 6136,,,https://beechwood-p.schools.nsw.gov.au,https://www.data.nsw.gov.au/data/dataset/nsw-education-nsw-public-schools-master-dataset,2026-02-19,-31.3485,152.3346,invalid,invalid_format
government,Beecroft Public School,Beecroft,2119,9484 8844,,,https://beecroft-p.schools.nsw.gov.au,https://www.data.nsw.gov.au/data/dataset/nsw-education-nsw-public-schools-master-dataset,2026-02-19,-33.7587,151.0723,invalid,invalid_format
government,Beelbangera Public School,Beelbangera,2680,6963 5368,,,https://beelbanger-p.schools.nsw.gov.au,https://www.data.nsw.gov.au/data/dataset/nsw-education-nsw-public-schools-master-dataset,2026-02-19,-34.2885,146.0509,invalid,invalid_format
government,Bega High School,Bega,2550,6492 9000,,,https://bega-h.schools.nsw.gov.au,https://www.data.nsw.gov.au/data/dataset/nsw-education-nsw-public-schools-master-dataset,2026-02-19,-36.6969,149.8929,invalid,invalid_format
government,Bega Valley Public School,Bega,2550,6492 1280,,,https://bega-p.schools.nsw.gov.au,https://www.data.nsw.gov.au/data/dataset/nsw-education-nsw-public-schools-master-dataset,2026-02-19,-36.6969,149.8929,invalid,invalid_format
government,Belair Public School,Adamstown,2289,4952 1735,,,https://belair-p.schools.nsw.gov.au,https://www.data.nsw.gov.au/data/dataset/nsw-education-nsw-public-schools-master-dataset,2026-02-19,-32.9428,151.6958,invalid,invalid_format
government,Bella Vista Public School,Bella Vista,2153,02 8814 1386,,,https://bellavista-p.schools.nsw.gov.au,https://www.data.nsw.gov.au/data/dataset/nsw-education-nsw-public-schools-master-dataset,2026-02-19,-33.7588,150.9929,invalid,invalid_format
government,Bellambi Public School,Bellambi,2518,4284 8666,,,https://bellambi-p.schools.nsw.gov.au,https://www.data.nsw.gov.au/data/dataset/nsw-education-nsw-public-schools-master-dataset,2026-02-19,-34.3761,150.9108,invalid,invalid_format
government,Bellata Public School,Bellata,2397,6793 7514,,,https://bellata-p.schools.nsw.gov.au,https://www.data.nsw.gov.au/data/dataset/nsw-education-nsw-public-schools-master-dataset,2026-02-19,-29.9191,149.7889,invalid,invalid_format
government,Bellbird Public School,Bellbird,2325,4990 2331,,,https://bellbird-p.schools.nsw.gov.au,https://www.data.nsw.gov.au/data/dataset/nsw-education-nsw-public-schools-master-dataset,2026-02-19,-32.8887,151.2832,invalid,invalid_format
government,Bellbrook Public School,Bellbrook,2440,6567 2049,,,https://bellbrook-p.schools.nsw.gov.au,https://www.data.nsw.gov.au/data/dataset/nsw-education-nsw-public-schools-master-dataset,2026-02-19,-31.1332,152.7514,invalid,invalid_format
government,Bellevue Hill Public School,Bellevue Hill,2023,9389 3928,,,https://bellevuehi-p.schools.nsw.gov.au/,https://www.data.nsw.gov.au/data/dataset/nsw-education-nsw-public-schools-master-dataset,2026-02-19,-33.879,151.251,invalid,invalid_format
independent,Bellfield College,Rossmore,2557,+61 2 9606 2666,,,https://www.bellfield.nsw.edu.au,https://www.isnsw.edu.au/about-independent-schools-nsw/independent-school-finder,2026-02-19,-33.9405,150.7728,invalid,invalid_format
independent,"Bellfield College, Rooty Hill Campus",Rooty Hill,2766,+61 2 9606 2666,,,https://www.bellfield.nsw.edu.au,https://www.isnsw.edu.au/about-independent-schools-nsw/independent-school-finder,2026-02-19,-33.8063,150.8612,invalid,invalid_format
government,Bellingen High School,Bellingen,2454,6655 1315,,,https://bellingen-h.schools.nsw.gov.au,https://www.data.nsw.gov.au/data/dataset/nsw-education-nsw-public-schools-master-dataset,2026-02-19,-30.4055,152.9515,invalid,invalid_format
government,Bellingen Public School,Bellingen,2454,6655 1147,,,https://bellingen-p.schools.nsw.gov.au,https://www.data.nsw.gov.au/data/dataset/nsw-education-nsw-public-schools-master-dataset,2026-02-19,-30.4055,152.9515,invalid,invalid_format
government,Belltrees Public School,Belltrees,2337,6546 1148,,,https://belltrees-p.schools.nsw.gov.au,https://www.data.nsw.gov.au/data/dataset/nsw-education-nsw-public-schools-master-dataset,2026-02-19,-31.9607,150.9914,invalid,invalid_format
independent,Belmont Christian College,Belmont North,2280,02 4922 8300,,,http://www.bcc.nsw.edu.au/web/,https://www.isnsw.edu.au/about-independent-schools-nsw/independent-school-finder,2026-02-19,-33.0493,151.6569,invalid,invalid_format
government,Belmont High School,Belmont,2280,4945 0600,,,https://belmont-h.schools.nsw.gov.au,https://www.data.nsw.gov.au/data/dataset/nsw-education-nsw-public-schools-master-dataset,2026-02-19,-33.0493,151.6569,invalid,invalid_format
government,Belmont North Public School,Belmont North,2280,4945 4861,,,https://belmontnth-p.schools.nsw.gov.au,https://www.data.nsw.gov.au/data/dataset/nsw-education-nsw-public-schools-master-dataset,2026-02-19,-33.0493,151.6569,invalid,invalid_format
government,Belmont Public School,Belmont,2280,4945 4858,,,https://belmont-p.schools.nsw.gov.au,https://www.data.nsw.gov.au/data/dataset/nsw-education-nsw-public-schools-master-dataset,2026-02-19,-33.0493,151.6569,invalid,invalid_format
government,Belmore Boys High School,Belmore,2192,9758 2800,,,https://belmoreboy-h.schools.nsw.gov.au,https://www.data.nsw.gov.au/data/dataset/nsw-education-nsw-public-schools-master-dataset,2026-02-19,-33.919,151.0894,invalid,invalid_format
government,Belmore North Public School,Belmore,2192,9750 0652,,,https://belmorenth-p.schools.nsw.gov.au,https://www.data.nsw.gov.au/data/dataset/nsw-education-nsw-public-schools-master-dataset,2026-02-19,-33.919,151.0894,invalid,invalid_format
government,Belmore South Public School,Belmore,2192,9759 4388,,,https://belmoresth-p.schools.nsw.gov.au,https://www.data.nsw.gov.au/data/dataset/nsw-education-nsw-public-schools-master-dataset,2026-02-19,-33.919,151.0894,invalid,invalid_format
government,Belrose Public School,Belrose,2085,9451 6203,,,https://belrose-p.schools.nsw.gov.au,https://www.data.nsw.gov.au/data/dataset/nsw-education-nsw-public-schools-master-dataset,2026-02-19,-33.7413,151.2056,invalid,invalid_format
government,Bemboka Public School,Bemboka,2550,6493 0229,,,https://bemboka-p.schools.nsw.gov.au,https://www.data.nsw.gov.au/data/dataset/nsw-education-nsw-public-schools-master-dataset,2026-02-19,-36.6969,149.8929,invalid,invalid_format
government,Ben Venue Public School,Armidale,2350,6772 4263,,,https://benvenue-p.schools.nsw.gov.au,https://www.data.nsw.gov.au/data/dataset/nsw-education-nsw-public-schools-master-dataset,2026-02-19,-30.6152,151.7679,invalid,invalid_format
government,Bendemeer Public School,Bendemeer,2355,6769 6532,,,https://bendemeer-p.schools.nsw.gov.au,https://www.data.nsw.gov.au/data/dataset/nsw-education-nsw-public-schools-master-dataset,2026-02-19,-30.7384,151.0513,invalid,invalid_format
government,Bennett Road Public School,Colyton,2760,9623 2018,,,https://bennettrd-p.schools.nsw.gov.au,https://www.data.nsw.gov.au/data/dataset/nsw-education-nsw-public-schools-master-dataset,2026-02-19,-33.7328,150.791,invalid,invalid_format
government,Berala Public School,Berala,2141,9649 7146,,,https://berala-p.schools.nsw.gov.au,https://www.data.nsw.gov.au/data/dataset/nsw-education-nsw-public-schools-master-dataset,2026-02-19,-33.8644,151.0397,invalid,invalid_format
government,Beresfield Public School,Beresfield,2322,4966 1146,,,https://beresfield-p.schools.nsw.gov.au,https://www.data.nsw.gov.au/data/dataset/nsw-education-nsw-public-schools-master-dataset,2026-02-19,-32.7931,151.6769,invalid,invalid_format
government,Beresford Road Public School,Greystanes,2145,9896 2644,,,https://beresfdrd-p.schools.nsw.gov.au,https://www.data.nsw.gov.au/data/dataset/nsw-education-nsw-public-schools-master-dataset,2026-02-19,-33.804,150.9554,invalid,invalid_format
government,Berinba Public School,Yass,2582,6226 2110,,,https://berinba-p.schools.nsw.gov.au,https://www.data.nsw.gov.au/data/dataset/nsw-education-nsw-public-schools-master-dataset,2026-02-19,-34.9167,148.8167,invalid,invalid_format
government,Berkeley Public School,Berkeley,2506,4271 1171,,,https://berkeley-p.schools.nsw.gov.au,https://www.data.nsw.gov.au/data/dataset/nsw-education-nsw-public-schools-master-dataset,2026-02-19,-34.4833,150.85,invalid,invalid_format
government,Berkeley Vale Public School,Berkeley Vale,2261,4388 1796,,,https://berkeleyva-p.schools.nsw.gov.au,https://www.data.nsw.gov.au/data/dataset/nsw-education-nsw-public-schools-master-dataset,2026-02-19,-33.35,151.4333,invalid,invalid_format
government,Berkeley West Public School,Berkeley,2506,4271 1478,,,https://berkeleyw-p.schools.nsw.gov.au,https://www.data.nsw.gov.au/data/dataset/nsw-education-nsw-public-schools-master-dataset,2026-02-19,-34.4833,150.85,invalid,invalid_format
government,Bermagui Public School,Bermagui,2546,6493 4271,,,https://bermagui-p.schools.nsw.gov.au,https://www.data.nsw.gov.au/data/dataset/nsw-education-nsw-public-schools-master-dataset,2026-02-19,-36.2036,150.1153,invalid,invalid_format
government,Berowra Public School,Berowra,2081,9456 1319,,,https://berowra-p.schools.nsw.gov.au,https://www.data.nsw.gov.au/data/dataset/nsw-education-nsw-public-schools-master-dataset,2026-02-19,-33.6208,151.1509,invalid,invalid_format
government,Berridale Public School,Berridale,2628,6456 3228,,,https://berridale-p.schools.nsw.gov.au,https://www.data.nsw.gov.au/data/dataset/nsw-education-nsw-public-schools-master-dataset,2026-02-19,-36.2322,148.6684,invalid,invalid_format
government,Berrigan Public School,Berrigan,2712,03 5885 2209,,,https://berrigan-p.schools.nsw.gov.au,https://www.data.nsw.gov.au/data/dataset/nsw-education-nsw-public-schools-master-dataset,2026-02-19,-35.6588,145.8114,invalid,invalid_format
government,Berrima Public School,Berrima,2577,4877 1262,,,https://berrima-p.schools.nsw.gov.au,https://www.data.nsw.gov.au/data/dataset/nsw-education-nsw-public-schools-master-dataset,2026-02-19,-34.6504,150.6487,invalid,invalid_format
government,Berry Public School,Berry,2535,4464 1158,,,https://berry-p.schools.nsw.gov.au,https://www.data.nsw.gov.au/data/dataset/nsw-education-nsw-public-schools-master-dataset,2026-02-19,-34.8167,150.6667,invalid,invalid_format
government,Bert Oldfield Public School,Seven Hills,2147,9622 2122,,,https://bertoldfie-p.schools.nsw.gov.au,https://www.data.nsw.gov.au/data/dataset/nsw-education-nsw-public-schools-master-dataset,2026-02-19,-33.7833,150.9333,invalid,invalid_format
catholic,Bethany Catholic Primary School,Glenmore Park,2745,(02) 4723 3700,bethany@parra.catholic.edu.au,,https://www.bethanyglenmorepark.catholic.edu.au,https://www.csnsw.catholic.edu.au/school-finder,2026-02-19,-33.8658,150.6402,valid,ok
catholic,Bethany College,Hurstville,2220,(02) 8566 0711,info@bethanyhurstville.catholic.edu.au,,https://bethanyhurstville.syd.catholic.edu.au,https://www.csnsw.catholic.edu.au/school-finder,2026-02-19,-33.9799,151.0903,valid,ok
independent,Bethel Christian School,Mount Druitt,2770,02 9625 4949,admin@bethel.nsw.edu.au,https://www.bethel.nsw.edu.au/bcs-contact-us,https://www.bethel.nsw.edu.au,https://www.isnsw.edu.au/about-independent-schools-nsw/independent-school-finder,2026-02-19,-33.7441,150.8064,valid,ok
government,Beverley Park School,Campbelltown,2560,4625 1118,,,https://beverleypk-s.schools.nsw.gov.au,https://www.data.nsw.gov.au/data/dataset/nsw-education-nsw-public-schools-master-dataset,2026-02-19,-34.05,150.8333,invalid,invalid_format
government,Beverly Hills Girls High School,Beverly Hills,2209,9150 4280,,,https://beverlyhg-h.schools.nsw.gov.au,https://www.data.nsw.gov.au/data/dataset/nsw-education-nsw-public-schools-master-dataset,2026-02-19,-33.9465,151.0692,invalid,invalid_format
government,Beverly Hills North Public School,Beverly Hills,2209,9759 3849,,,https://beverlyhn-p.schools.nsw.gov.au,https://www.data.nsw.gov.au/data/dataset/nsw-education-nsw-public-schools-master-dataset,2026-02-19,-33.9465,151.0692,invalid,invalid_format
government,Beverly Hills Public School,Beverly Hills,2209,9580 5074,,,https://beverlyhi-p.schools.nsw.gov.au,https://www.data.nsw.gov.au/data/dataset/nsw-education-nsw-public-schools-master-dataset,2026-02-19,-33.9465,151.0692,invalid,invalid_format
government,Bexhill Public School,Bexhill,2480,6628 4223,,,https://bexhill-p.schools.nsw.gov.au,https://www.data.nsw.gov.au/data/dataset/nsw-education-nsw-public-schools-master-dataset,2026-02-19,-28.7493,153.2724,invalid,invalid_format
government,Bexley North Public School,Bexley,2207,9150 6171,,,https://bexleynth-p.schools.nsw.gov.au,https://www.data.nsw.gov.au/data/dataset/nsw-education-nsw-public-schools-master-dataset,2026-02-19,-33.9353,151.1257,invalid,invalid_format
government,Bexley Public School,Bexley,2207,9567 3501,,,https://bexley-p.schools.nsw.gov.au,https://www.data.nsw.gov.au/data/dataset/nsw-education-nsw-public-schools-master-dataset,2026-02-19,-33.9353,151.1257,invalid,invalid_format
independent,Bhaktivedanta Swami Gurukula School,Eungella,2484,02 6672 3788,,,https://www.krishnaschool.org,https://www.isnsw.edu.au/about-independent-schools-nsw/independent-school-finder,2026-02-19,-28.3702,153.3425,invalid,invalid_format
independent,Biala Special School,Ballina,2478,02 6686 3395,,,https://www.biala.org.au/,https://www.isnsw.edu.au/about-independent-schools-nsw/independent-school-finder,2026-02-19,-28.8571,153.5874,invalid,invalid_format
government,Biddabah Public School,Warners Bay,2282,4954 6058,,,https://biddabah-p.schools.nsw.gov.au,https://www.data.nsw.gov.au/data/dataset/nsw-education-nsw-public-schools-master-dataset,2026-02-19,-32.9725,151.6527,invalid,invalid_format
government,Bidwill Public School,Bidwill,2770,9628 2444,,,https://bidwill-p.schools.nsw.gov.au,https://www.data.nsw.gov.au/data/dataset/nsw-education-nsw-public-schools-master-dataset,2026-02-19,-33.7441,150.8064,invalid,invalid_format
government,Bigga Public School,Bigga,2583,4835 2236,,,https://bigga-p.schools.nsw.gov.au,https://www.data.nsw.gov.au/data/dataset/nsw-education-nsw-public-schools-master-dataset,2026-02-19,-34.2168,149.4755,invalid,invalid_format
government,Bilambil Public School,Bilambil,2486,07 5590 7210,,,https://bilambil-p.schools.nsw.gov.au,https://www.data.nsw.gov.au/data/dataset/nsw-education-nsw-public-schools-master-dataset,2026-02-19,-28.2383,153.5008,invalid,invalid_format
government,Bilgola Plateau Public School,Bilgola Plateau,2107,9918 6524,,,https://bilgolapla-p.schools.nsw.gov.au,https://www.data.nsw.gov.au/data/dataset/nsw-education-nsw-public-schools-master-dataset,2026-02-19,-33.6342,151.3234,invalid,invalid_format
government,Billabong High School,Culcairn,2660,6029 8377,,,https://billabong-h.schools.nsw.gov.au,https://www.data.nsw.gov.au/data/dataset/nsw-education-nsw-public-schools-master-dataset,2026-02-19,-35.6637,147.0787,invalid,invalid_format
government,Bilpin Public School,Bilpin,2758,4567 1154,,,https://bilpin-p.schools.nsw.gov.au,https://www.data.nsw.gov.au/data/dataset/nsw-education-nsw-public-schools-master-dataset,2026-02-19,-33.4486,150.6295,invalid,invalid_format
government,Binalong Public School,Binalong,2584,6227 4381,,,https://binalong-p.schools.nsw.gov.au,https://www.data.nsw.gov.au/data/dataset/nsw-education-nsw-public-schools-master-dataset,2026-02-19,-34.6717,148.6348,invalid,invalid_format
government,Binda Public School,Binda,2583,4835 6052,,,https://binda-p.schools.nsw.gov.au,https://www.data.nsw.gov.au/data/dataset/nsw-education-nsw-public-schools-master-dataset,2026-02-19,-34.2168,149.4755,invalid,invalid_format
government,Bingara Central School,Bingara,2404,6724 1606,,,https://bingara-c.schools.nsw.gov.au,https://www.data.nsw.gov.au/data/dataset/nsw-education-nsw-public-schools-master-dataset,2026-02-19,-29.9667,150.6,invalid,invalid_format
government,Binnaway Central School,Binnaway,2395,6844 1606,,,https://binnaway-c.schools.nsw.gov.au,https://www.data.nsw.gov.au/data/dataset/nsw-education-nsw-public-schools-master-dataset,2026-02-19,-31.5523,149.3787,invalid,invalid_format
government,Binya Public School,Binya,2665,6968 3221,,,https://binya-p.schools.nsw.gov.au,https://www.data.nsw.gov.au/data/dataset/nsw-education-nsw-public-schools-master-dataset,2026-02-19,-34.3493,147.2218,invalid,invalid_format
government,Biraban Public School,Toronto,2283,4959 1902,,,https://biraban-p.schools.nsw.gov.au,https://www.data.nsw.gov.au/data/dataset/nsw-education-nsw-public-schools-master-dataset,2026-02-19,-33.0423,151.6116,invalid,invalid_format
government,Birchgrove Public School,Balmain,2041,9810 2469,,,https://birchgrove-p.schools.nsw.gov.au,https://www.data.nsw.gov.au/data/dataset/nsw-education-nsw-public-schools-master-dataset,2026-02-19,-33.8548,151.1833,invalid,invalid_format
government,Birrong Boys High School,Birrong,2143,9644 5200,,,https://birrongboy-h.schools.nsw.gov.au,https://www.data.nsw.gov.au/data/dataset/nsw-education-nsw-public-schools-master-dataset,2026-02-19,-33.8931,151.0337,invalid,invalid_format
government,Birrong Girls High School,Birrong,2143,9644 5057,,,https://birronggir-h.schools.nsw.gov.au,https://www.data.nsw.gov.au/data/dataset/nsw-education-nsw-public-schools-master-dataset,2026-02-19,-33.8931,151.0337,invalid,invalid_format
government,Birrong Public School,Birrong,2143,9644 3078,,,https://birrong-p.schools.nsw.gov.au,https://www.data.nsw.gov.au/data/dataset/nsw-education-nsw-public-schools-master-dataset,2026-02-19,-33.8931,151.0337,invalid,invalid_format
independent,Bishop Druitt College,Coffs Harbour,2450,+61 2 6651 5644,enrolments@bdc.nsw.edu.au,,http://www.bdc.nsw.edu.au,https://www.isnsw.edu.au/about-independent-schools-nsw/independent-school-finder,2026-02-19,-30.1574,153.0958,valid,ok
independent,Bishop Tyrrell Anglican College,Fletcher,2287,+61 2 4979 8484,,https://www.btac.nsw.edu.au,https://www.btac.nsw.edu.au,https://www.isnsw.edu.au/about-independent-schools-nsw/independent-school-finder,2026-02-19,-32.8937,151.6901,invalid,invalid_format
government,Black Hill Public School,Black Hill,2322,4930 3137,,,https://blackhill-p.schools.nsw.gov.au,https://www.data.nsw.gov.au/data/dataset/nsw-education-nsw-public-schools-master-dataset,2026-02-19,-32.7931,151.6769,invalid,invalid_format
government,Black Mountain Public School,Black Mountain,2365,6775 0192,,,https://blackmtn-p.schools.nsw.gov.au,https://www.data.nsw.gov.au/data/dataset/nsw-education-nsw-public-schools-master-dataset,2026-02-19,-30.1333,151.8667,invalid,invalid_format
government,Blackalls Park Public School,Blackalls Park,2283,4959 1213,,,https://blackallpk-p.schools.nsw.gov.au,https://www.data.nsw.gov.au/data/dataset/nsw-education-nsw-public-schools-master-dataset,2026-02-19,-33.0423,151.6116,invalid,invalid_format
government,Blackett Public School,Blackett,2770,9628 7760,,,https://blackett-p.schools.nsw.gov.au,https://www.data.nsw.gov.au/data/dataset/nsw-education-nsw-public-schools-master-dataset,2026-02-19,-33.7441,150.8064,invalid,invalid_format
government,Blackheath Public School,Blackheath,2785,4787 8253,,,https://blackheath-p.schools.nsw.gov.au,https://www.data.nsw.gov.au/data/dataset/nsw-education-nsw-public-schools-master-dataset,2026-02-19,-33.7333,150.25,invalid,invalid_format
government,Blacksmiths Public School,Blacksmiths,2281,4971 1519,,,https://blacksmith-p.schools.nsw.gov.au,https://www.data.nsw.gov.au/data/dataset/nsw-education-nsw-public-schools-master-dataset,2026-02-19,-33.0823,151.6455,invalid,invalid_format
government,Blacktown Boys High School,Blacktown,2148,9622 1558,,,https://blacktownb-h.schools.nsw.gov.au,https://www.data.nsw.gov.au/data/dataset/nsw-education-nsw-public-schools-master-dataset,2026-02-19,-33.7482,150.8927,invalid,invalid_format
government,Blacktown Girls High School,Blacktown,2148,9831 7577,,,https://blacktowng-h.schools.nsw.gov.au,https://www.data.nsw.gov.au/data/dataset/nsw-education-nsw-public-schools-master-dataset,2026-02-19,-33.7482,150.8927,invalid,invalid_format
government,Blacktown North Public School,Blacktown,2148,9622 2968,,,https://blacktownn-p.schools.nsw.gov.au,https://www.data.nsw.gov.au/data/dataset/nsw-education-nsw-public-schools-master-dataset,2026-02-19,-33.7482,150.8927,invalid,invalid_format
government,Blacktown South Public School,Blacktown,2148,9622 2449,,,https://blacktowns-p.schools.nsw.gov.au,https://www.data.nsw.gov.au/data/dataset/nsw-education-nsw-public-schools-master-dataset,2026-02-19,-33.7482,150.8927,invalid,invalid_format
government,Blacktown West Public School,Blacktown,2148,9622 2285,,,https://blacktownw-p.schools.nsw.gov.au,https://www.data.nsw.gov.au/data/dataset/nsw-education-nsw-public-schools-master-dataset,2026-02-19,-33.7482,150.8927,invalid,invalid_format
independent,Blacktown Youth College - Lawson Campus,Lawson,2783,+61 2 4759 1012,info@blacktownyouthcollege.nsw.edu.au,https://www.blacktownyouthcollege.nsw.edu.au/contact-us,http://www.blacktownyouthcollege.nsw.edu.au,https://www.isnsw.edu.au/about-independent-schools-nsw/independent-school-finder,2026-02-19,-33.7206,150.4297,valid,ok
independent,Blacktown Youth College Incorporated,Hebersham,2770,+61 2 9011 5335,info@blacktownyouthcollege.nsw.edu.au,https://www.blacktownyouthcollege.nsw.edu.au/contact-us,https://www.blacktownyouthcollege.nsw.edu.au,https://www.isnsw.edu.au/about-independent-schools-nsw/independent-school-finder,2026-02-19,-33.7441,150.8064,valid,ok
government,Blackville Public School,Blackville,2343,6747 4024,,,https://blackville-p.schools.nsw.gov.au,https://www.data.nsw.gov.au/data/dataset/nsw-education-nsw-public-schools-master-dataset,2026-02-19,-31.5667,150.55,invalid,invalid_format
government,Blackwell Public School,St Clair,2759,9670 5080,,,https://blackwell-p.schools.nsw.gov.au,https://www.data.nsw.gov.au/data/dataset/nsw-education-nsw-public-schools-master-dataset,2026-02-19,-33.813,150.7977,invalid,invalid_format
government,Blairmount Public School,Blairmount,2559,4626 1795,,,https://blairmount-p.schools.nsw.gov.au,https://www.data.nsw.gov.au/data/dataset/nsw-education-nsw-public-schools-master-dataset,2026-02-19,-34.0508,150.7924,invalid,invalid_format
government,Blakebrook Public School,Blakebrook,2480,6629 3263,,,https://blakebrook-p.schools.nsw.gov.au,https://www.data.nsw.gov.au/data/dataset/nsw-education-nsw-public-schools-master-dataset,2026-02-19,-28.7493,153.2724,invalid,invalid_format
government,Blakehurst High School,Blakehurst,2221,9546 3281,,,https://blakehurst-h.schools.nsw.gov.au,https://www.data.nsw.gov.au/data/dataset/nsw-education-nsw-public-schools-master-dataset,2026-02-19,-33.9867,151.1173,invalid,invalid_format
government,Blakehurst Public School,Blakehurst,2221,9546 1555,,,https://blakehurst-p.schools.nsw.gov.au,https://www.data.nsw.gov.au/data/dataset/nsw-education-nsw-public-schools-master-dataset,2026-02-19,-33.9867,151.1173,invalid,invalid_format
government,Blandford Public School,Blandford,2338,6546 6117,,,https://blandford-p.schools.nsw.gov.au,https://www.data.nsw.gov.au/data/dataset/nsw-education-nsw-public-schools-master-dataset,2026-02-19,-31.7641,150.8869,invalid,invalid_format
government,Blaxcell Street Public School,Granville,2142,9632 8162,,,https://blaxcellst-p.schools.nsw.gov.au,https://www.data.nsw.gov.au/data/dataset/nsw-education-nsw-public-schools-master-dataset,2026-02-19,-33.8197,151.0264,invalid,invalid_format
government,Blaxland East Public School,Blaxland,2774,4739 1579,,,https://blaxlande-p.schools.nsw.gov.au,https://www.data.nsw.gov.au/data/dataset/nsw-education-nsw-public-schools-master-dataset,2026-02-19,-33.7307,150.6353,invalid,invalid_format
government,Blaxland High School,Blaxland,2774,4739 4655,,,https://blaxland-h.schools.nsw.gov.au,https://www.data.nsw.gov.au/data/dataset/nsw-education-nsw-public-schools-master-dataset,2026-02-19,-33.7307,150.6353,invalid,invalid_format
government,Blaxland Public School,Blaxland,2774,4739 2817,,,https://blaxland-p.schools.nsw.gov.au,https://www.data.nsw.gov.au/data/dataset/nsw-education-nsw-public-schools-master-dataset,2026-02-19,-33.7307,150.6353,invalid,invalid_format
government,Blayney High School,Blayney,2799,6368 2100,,,https://blayney-h.schools.nsw.gov.au,https://www.data.nsw.gov.au/data/dataset/nsw-education-nsw-public-schools-master-dataset,2026-02-19,-33.5323,149.2537,invalid,invalid_format
government,Blayney Public School,Blayney,2799,6368 2154,,,https://blayney-p.schools.nsw.gov.au,https://www.data.nsw.gov.au/data/dataset/nsw-education-nsw-public-schools-master-dataset,2026-02-19,-33.5323,149.2537,invalid,invalid_format
catholic,Blessed Sacrament Catholic Primary School,Clifton Gardens,2088,(02) 9969 7758,info@bscliftongardens.catholic.edu.au,,https://bscliftongardens.syd.catholic.edu.au,https://www.csnsw.catholic.edu.au/school-finder,2026-02-19,-33.839,151.2396,valid,ok
government,Bletchington Public School,Orange,2800,6362 3422,,,https://bletchingt-p.schools.nsw.gov.au,https://www.data.nsw.gov.au/data/dataset/nsw-education-nsw-public-schools-master-dataset,2026-02-19,-33.2547,149.156,invalid,invalid_format
government,Bligh Park Public School,Bligh Park,2756,02 4572 7067,,,https://blighpark-p.schools.nsw.gov.au,https://www.data.nsw.gov.au/data/dataset/nsw-education-nsw-public-schools-master-dataset,2026-02-19,-33.6586,150.8108,invalid,invalid_format
government,Blighty Public School,Blighty,2713,03 5882 6238,,,https://blighty-p.schools.nsw.gov.au,https://www.data.nsw.gov.au/data/dataset/nsw-education-nsw-public-schools-master-dataset,2026-02-19,-35.6216,145.4285,invalid,invalid_format
independent,Blue Gum Community School (NSW),Hornsby,2077,02 9138 2019,,https://bluegum.nsw.edu.au/contact,https://bluegum.nsw.edu.au/,https://www.isnsw.edu.au/about-independent-schools-nsw/independent-school-finder,2026-02-19,-33.7024,151.0993,invalid,invalid_format
government,Blue Haven Public School,Blue Haven,2262,4399 0167,,,https://bluehaven-p.schools.nsw.gov.au,https://www.data.nsw.gov.au/data/dataset/nsw-education-nsw-public-schools-master-dataset,2026-02-19,-33.2069,151.5436,invalid,invalid_format
independent,Blue Hills College,Goonellabah,2480,+61 2 6625 6000,,,http://www.bluehills.nsw.edu.au,https://www.isnsw.edu.au/about-independent-schools-nsw/independent-school-finder,2026-02-19,-28.7493,153.2724,invalid,invalid_format
independent,Blue Mountains Grammar Preparatory School,Valley Heights,2777,02 4751 1266,,https://www.bmgs.nsw.edu.au/contact-us/,https://www.bmgs.nsw.edu.au,https://www.isnsw.edu.au/about-independent-schools-nsw/independent-school-finder,2026-02-19,-33.6985,150.6346,invalid,invalid_format
independent,Blue Mountains Grammar School,Wentworth Falls,2782,02 4757 9000,,https://www.bmgs.nsw.edu.au/contact-us/,https://www.bmgs.nsw.edu.au,https://www.isnsw.edu.au/about-independent-schools-nsw/independent-school-finder,2026-02-19,-33.7103,150.3753,invalid,invalid_format
independent,Blue Mountains Steiner School,Hazelbrook,2779,+61 2 4758 6044,,https://www.bluemountainssteiner.nsw.edu.au/,https://www.bluemountainssteiner.nsw.edu.au,https://www.isnsw.edu.au/about-independent-schools-nsw/independent-school-finder,2026-02-19,-33.7245,150.4584,invalid,invalid_format
government,Boambee Public School,Boambee,2450,6653 1107,,,https://boambee-p.schools.nsw.gov.au,https://www.data.nsw.gov.au/data/dataset/nsw-education-nsw-public-schools-master-dataset,2026-02-19,-30.1574,153.0958,invalid,invalid_format
government,Bobin Public School,Bobin,2429,6550 5147,,,https://bobin-p.schools.nsw.gov.au,https://www.data.nsw.gov.au/data/dataset/nsw-education-nsw-public-schools-master-dataset,2026-02-19,-31.7814,152.0001,invalid,invalid_format
government,Bobs Farm Public School,Bobs Farm,2316,4982 1179,,,https://bobsfarm-p.schools.nsw.gov.au,https://www.data.nsw.gov.au/data/dataset/nsw-education-nsw-public-schools-master-dataset,2026-02-19,-32.7858,152.0896,invalid,invalid_format
government,Bodalla Public School,Bodalla,2545,4473 5257,,,https://bodalla-p.schools.nsw.gov.au,https://www.data.nsw.gov.au/data/dataset/nsw-education-nsw-public-schools-master-dataset,2026-02-19,-36.2891,148.7385,invalid,invalid_format
government,Bogan Gate Public School,Bogan Gate,2876,6864 1124,,,https://bogangate-p.schools.nsw.gov.au,https://www.data.nsw.gov.au/data/dataset/nsw-education-nsw-public-schools-master-dataset,2026-02-19,-33.1231,147.9104,invalid,invalid_format
government,Bogangar Public School,Bogangar,2488,6676 2755,,,https://bogangar-p.schools.nsw.gov.au,https://www.data.nsw.gov.au/data/dataset/nsw-education-nsw-public-schools-master-dataset,2026-02-19,-28.3294,153.5686,invalid,invalid_format
government,Boggabilla Central School,Boggabilla,2409,07 4676 2104,,,https://boggabilla-c.schools.nsw.gov.au,https://www.data.nsw.gov.au/data/dataset/nsw-education-nsw-public-schools-master-dataset,2026-02-19,-28.736,150.6239,invalid,invalid_format
government,Boggabri Public School,Boggabri,2382,6743 4526,,,https://boggabri-p.schools.nsw.gov.au,https://www.data.nsw.gov.au/data/dataset/nsw-education-nsw-public-schools-master-dataset,2026-02-19,-30.7095,150.0412,invalid,invalid_format
government,Bolwarra Public School,Bolwarra,2320,4930 1296,,,https://bolwarra-p.schools.nsw.gov.au,https://www.data.nsw.gov.au/data/dataset/nsw-education-nsw-public-schools-master-dataset,2026-02-19,-32.7288,151.5345,invalid,invalid_format
government,Bomaderry High School,Bomaderry,2541,4421 0699,,,https://bomaderry-h.schools.nsw.gov.au/,https://www.data.nsw.gov.au/data/dataset/nsw-education-nsw-public-schools-master-dataset,2026-02-19,-34.8842,150.6004,invalid,invalid_format
government,Bomaderry Public School,Bomaderry,2541,4421 6577,,,https://bomaderry-p.schools.nsw.gov.au,https://www.data.nsw.gov.au/data/dataset/nsw-education-nsw-public-schools-master-dataset,2026-02-19,-34.8842,150.6004,invalid,invalid_format
government,Bombala High School,Bombala,2632,6458 3358,,,https://bombala-h.schools.nsw.gov.au,https://www.data.nsw.gov.au/data/dataset/nsw-education-nsw-public-schools-master-dataset,2026-02-19,-36.9309,149.2131,invalid,invalid_format
government,Bombala Public School,Bombala,2632,6458 3423,,,https://bombala-p.schools.nsw.gov.au,https://www.data.nsw.gov.au/data/dataset/nsw-education-nsw-public-schools-master-dataset,2026-02-19,-36.9309,149.2131,invalid,invalid_format
government,Bonalbo Central School,Bonalbo,2469,6665 1205,,,https://bonalbo-c.schools.nsw.gov.au,https://www.data.nsw.gov.au/data/dataset/nsw-education-nsw-public-schools-master-dataset,2026-02-19,-28.976,152.7656,invalid,invalid_format
government,Bondi Beach Public School,Bondi Beach,2026,9130 2116,,,https://bondibeach-p.schools.nsw.gov.au,https://www.data.nsw.gov.au/data/dataset/nsw-education-nsw-public-schools-master-dataset,2026-02-19,-33.8879,151.2808,invalid,invalid_format
government,Bondi Public School,Bondi,2026,9130 6998,,,https://bondi-p.schools.nsw.gov.au,https://www.data.nsw.gov.au/data/dataset/nsw-education-nsw-public-schools-master-dataset,2026-02-19,-33.8879,151.2808,invalid,invalid_format
government,Bongongo Public School,Adjungbilly,2727,6946 6214,,,https://bongongo-p.schools.nsw.gov.au,https://www.data.nsw.gov.au/data/dataset/nsw-education-nsw-public-schools-master-dataset,2026-02-19,-35.0016,148.277,invalid,invalid_format
government,Bonnells Bay Public School,Bonnells Bay,2264,4973 1149,,,https://bonnellbay-p.schools.nsw.gov.au,https://www.data.nsw.gov.au/data/dataset/nsw-education-nsw-public-schools-master-dataset,2026-02-19,-33.108,151.4871,invalid,invalid_format
government,Bonnet Bay Public School,Bonnet Bay,2226,9528 4111,,,https://bonnetbay-p.schools.nsw.gov.au,https://www.data.nsw.gov.au/data/dataset/nsw-education-nsw-public-schools-master-dataset,2026-02-19,-33.9994,151.0639,invalid,invalid_format
government,Bonnyrigg Heights Public School,Bonnyrigg Heights,2177,9823 7000,,,https://bonnyriggh-p.schools.nsw.gov.au,https://www.data.nsw.gov.au/data/dataset/nsw-education-nsw-public-schools-master-dataset,2026-02-19,-33.8936,150.8891,invalid,invalid_format
government,Bonnyrigg High School,Bonnyrigg,2177,9823 1184,,,https://bonnyrigg-h.schools.nsw.gov.au,https://www.data.nsw.gov.au/data/dataset/nsw-education-nsw-public-schools-master-dataset,2026-02-19,-33.8936,150.8891,invalid,invalid_format
government,Bonnyrigg Public School,Bonnyrigg,2177,9610 1511,,,https://bonnyrigg-p.schools.nsw.gov.au,https://www.data.nsw.gov.au/data/dataset/nsw-education-nsw-public-schools-master-dataset,2026-02-19,-33.8936,150.8891,invalid,invalid_format
government,Bonshaw Public School,Bonshaw,2361,07 4653 5147,,,https://bonshaw-p.schools.nsw.gov.au,https://www.data.nsw.gov.au/data/dataset/nsw-education-nsw-public-schools-master-dataset,2026-02-19,-29.0479,151.2757,invalid,invalid_format
government,Bonville Public School,Bonville,2450,6653 4250,,,https://bonville-p.schools.nsw.gov.au,https://www.data.nsw.gov.au/data/dataset/nsw-education-nsw-public-schools-master-dataset,2026-02-19,-30.1574,153.0958,invalid,invalid_format
government,Boolaroo Public School,Boolaroo,2284,4958 1479,,,https://boolaroo-p.schools.nsw.gov.au,https://www.data.nsw.gov.au/data/dataset/nsw-education-nsw-public-schools-master-dataset,2026-02-19,-32.9806,151.6184,invalid,invalid_format
government,Boomi Public School,Boomi,2405,6753 5221,,,https://boomi-p.schools.nsw.gov.au,https://www.data.nsw.gov.au/data/dataset/nsw-education-nsw-public-schools-master-dataset,2026-02-19,-29.0759,149.6377,invalid,invalid_format
government,Booragul Public School,Booragul,2284,4958 2013,,,https://booragul-p.schools.nsw.gov.au,https://www.data.nsw.gov.au/data/dataset/nsw-education-nsw-public-schools-master-dataset,2026-02-19,-32.9806,151.6184,invalid,invalid_format
government,Booral Public School,Booral,2425,4994 9266,,,https://booral-p.schools.nsw.gov.au,https://www.data.nsw.gov.au/data/dataset/nsw-education-nsw-public-schools-master-dataset,2026-02-19,-32.4777,152.0651,invalid,invalid_format
government,Boorowa Central School,Boorowa,2586,6385 3009,,,https://boorowa-c.schools.nsw.gov.au,https://www.data.nsw.gov.au/data/dataset/nsw-education-nsw-public-schools-master-dataset,2026-02-19,-34.4366,148.7163,invalid,invalid_format
independent,Border Christian College,Thurgoona,2640,+61 2 6049 3200,,,https://www.alburybcc.nsw.edu.au,https://www.isnsw.edu.au/about-independent-schools-nsw/independent-school-finder,2026-02-19,-36.0865,146.9091,invalid,invalid_format
government,Boree Creek Public School,Boree Creek,2652,6927 1478,,,https://boreecreek-p.schools.nsw.gov.au,https://www.data.nsw.gov.au/data/dataset/nsw-education-nsw-public-schools-master-dataset,2026-02-19,-35.3833,147.25,invalid,invalid_format
government,Borenore Public School,Borenore,2800,6365 2262,,,https://borenore-p.schools.nsw.gov.au,https://www.data.nsw.gov.au/data/dataset/nsw-education-nsw-public-schools-master-dataset,2026-02-19,-33.2547,149.156,invalid,invalid_format
government,Boronia Park Public School,Hunters Hill,2110,9817 2778,,,https://boroniapk-p.schools.nsw.gov.au,https://www.data.nsw.gov.au/data/dataset/nsw-education-nsw-public-schools-master-dataset,2026-02-19,-33.8343,151.1459,invalid,invalid_format
government,Bossley Park High School,Bossley Park,2176,9823 1033,,,https://bossleypk-h.schools.nsw.gov.au,https://www.data.nsw.gov.au/data/dataset/nsw-education-nsw-public-schools-master-dataset,2026-02-19,-33.8701,150.8612,invalid,invalid_format
government,Bossley Park Public School,Bossley Park,2176,9610 6286,,,https://bossleypk-p.schools.nsw.gov.au,https://www.data.nsw.gov.au/data/dataset/nsw-education-nsw-public-schools-master-dataset,2026-02-19,-33.8701,150.8612,invalid,invalid_format
government,Botany Public School,Botany,2019,9316 8889,,,https://botany-p.schools.nsw.gov.au,https://www.data.nsw.gov.au/data/dataset/nsw-education-nsw-public-schools-master-dataset,2026-02-19,-33.9566,151.2096,invalid,invalid_format
government,Bourke High School,Bourke,2840,02 6872 2522,,,https://bourke-h.schools.nsw.gov.au,https://www.data.nsw.gov.au/data/dataset/nsw-education-nsw-public-schools-master-dataset,2026-02-19,-30.6087,145.7211,invalid,invalid_format
government,Bourke Public School,Bourke,2840,6872 2051,,,https://bourke-p.schools.nsw.gov.au,https://www.data.nsw.gov.au/data/dataset/nsw-education-nsw-public-schools-master-dataset,2026-02-19,-30.6087,145.7211,invalid,invalid_format
government,Bourke Street Public School,Surry Hills,2010,9319 7310,,,https://bourkest-p.schools.nsw.gov.au,https://www.data.nsw.gov.au/data/dataset/nsw-education-nsw-public-schools-master-dataset,2026-02-19,-33.8794,151.2193,invalid,invalid_format
