sector,school_name,suburb,postcode,phone,public_email,contact_form_url,website_url,source_directory_url,last_verified_date,lat,lon
independent,A.G.B.U. Alexander Primary School,Duffys Forest,2084,+61 2 9486 3266,office@alexander.nsw.edu.au,https://alexander.nsw.edu.au/,https://www.alexander.nsw.edu.au/,https://www.isnsw.edu.au/about-independent-schools-nsw/independent-school-finder,2026-02-19,-33.6583,151.2107
government,Abbotsford Public School,Abbotsford,2046,9713 6220,abbotsford-p.school@det.nsw.edu.au,,https://abbotsford-p.schools.nsw.gov.au,https://www.data.nsw.gov.au/data/dataset/nsw-education-nsw-public-schools-master-dataset,2026-02-19,-33.8582,151.1309
independent,Abbotsleigh,Wahroonga,2076,+61 2 9473 7777,,,http://www.abbotsleigh.nsw.edu.au,https://www.isnsw.edu.au/about-independent-schools-nsw/independent-school-finder,2026-02-19,-33.7053,151.1228
independent,Abbotsleigh Junior School,Wahroonga,2076,+61 2 9473 7777,,,https://www.abbotsleigh.nsw.edu.au,https://www.isnsw.edu.au/about-independent-schools-nsw/independent-school-finder,2026-02-19,-33.7053,151.1228
government,Aberdeen Public School,Aberdeen,2336,6543 7271,aberdeen-p.school@det.nsw.edu.au,,https://aberdeen-p.schools.nsw.gov.au,https://www.data.nsw.gov.au/data/dataset/nsw-education-nsw-public-schools-master-dataset,2026-02-19,-32.1586,150.942
government,Abermain Public School,Abermain,2326,4930 4210,abermain-p.school@det.nsw.edu.au,,https://abermain-p.schools.nsw.gov.au,https://www.data.nsw.gov.au/data/dataset/nsw-education-nsw-public-schools-master-dataset,2026-02-19,-32.8276,151.4082
government,Adaminaby Public School,Adaminaby,2629,6454 2265,adaminaby-p.school@det.nsw.edu.au,,https://adaminaby-p.schools.nsw.gov.au,https://www.data.nsw.gov.au/data/dataset/nsw-education-nsw-public-schools-master-dataset,2026-02-19,-35.9965,148.7724
government,Adamstown Public School,Adamstown,2289,4957 1114,adamstown-p.school@det.nsw.edu.au,,https://adamstown-p.schools.nsw.gov.au,https://www.data.nsw.gov.au/data/dataset/nsw-education-nsw-public-schools-master-dataset,2026-02-19,-32.9428,151.6958
government,Adelong Public School,Adelong,2729,6946 2053,adelong-p.school@det.nsw.edu.au,,https://adelong-p.schools.nsw.gov.au,https://www.data.nsw.gov.au/data/dataset/nsw-education-nsw-public-schools-master-dataset,2026-02-19,-35.0974,147.8123
independent,Aetaomah School,Terragon,2484,+61 2 6679 7255,contact@aetaomah.nsw.edu.au,https://www.aetaomah.nsw.edu.au/contact-us-1,http://www.aetaomah.nsw.edu.au,https://www.isnsw.edu.au/about-independent-schools-nsw/independent-school-finder,2026-02-19,-28.3702,153.3425
government,Airds High School,Campbelltown,2560,4625 5811,airds-h.school@det.nsw.edu.au,,https://airds-h.schools.nsw.gov.au,https://www.data.nsw.gov.au/data/dataset/nsw-education-nsw-public-schools-master-dataset,2026-02-19,-34.05,150.8333
government,Ajuga School,Glenfield,2167,9827 6100,ajuga-s.school@det.nsw.edu.au,,https://ajuga-s.schools.nsw.gov.au,https://www.data.nsw.gov.au/data/dataset/nsw-education-nsw-public-schools-master-dataset,2026-02-19,-33.9667,150.9
independent,Al Amanah College - Bankstown,Bankstown,2200,+61 2 9708 1220,admin@alamanah.nsw.edu.au,https://www.alamanah.nsw.edu.au/,https://www.alamanah.nsw.edu.au,https://www.isnsw.edu.au/about-independent-schools-nsw/independent-school-finder,2026-02-19,-33.9196,151.0308
independent,Al Amanah College - Liverpool,Liverpool,2170,02 9822 8022,admin@alamanah.nsw.edu.au,https://www.alamanah.nsw.edu.au/,https://www.alamanah.nsw.edu.au/,https://www.isnsw.edu.au/about-independent-schools-nsw/independent-school-finder,2026-02-19,-33.9522,150.8995
independent,Al Hikma College,Lakemba,2195,02 9703 3017,admin@alhikma.nsw.edu.au,http://www.alhikma.nsw.edu.au,http://www.alhikma.nsw.edu.au,https://www.isnsw.edu.au/about-independent-schools-nsw/independent-school-finder,2026-02-19,-33.922,151.0716
independent,Al Noori Muslim School - Primary Campus,Greenacre,2190,02 9790 5726,,https://alnoori.nsw.edu.au/,http://www.alnoori.nsw.edu.au,https://www.isnsw.edu.au/about-independent-schools-nsw/independent-school-finder,2026-02-19,-33.9003,151.0556
independent,Al Noori Muslim School - Senior Campus,Greenacre,2190,02 9790 5726,,https://alnoori.nsw.edu.au/,https://www.alnoori.nsw.edu.au,https://www.isnsw.edu.au/about-independent-schools-nsw/independent-school-finder,2026-02-19,-33.9003,151.0556
independent,Al Sadiq College,Greenacre,2190,+61 2 9750 6011,,,https://www.alsadiq.nsw.edu.au,https://www.isnsw.edu.au/about-independent-schools-nsw/independent-school-finder,2026-02-19,-33.9003,151.0556
independent,Al Sadiq College - Primary Campus,Yagoona,2199,+61 2 9796 4240,,,https://www.alsadiq.nsw.edu.au,https://www.isnsw.edu.au/about-independent-schools-nsw/independent-school-finder,2026-02-19,-33.9049,151.02
independent,Al Zahra College,Arncliffe,2205,02 9599 0161,info@azc.nsw.edu.au,https://www.azc.nsw.edu.au/,https://www.azc.nsw.edu.au,https://www.isnsw.edu.au/about-independent-schools-nsw/independent-school-finder,2026-02-19,-33.9313,151.1522
independent,Al-Faisal College,Auburn,2144,+61 2 8877 2000,alfaisalcollege@afc.nsw.edu.au,https://www.afc.nsw.edu.au/contact-us,https://www.afc.nsw.edu.au,https://www.isnsw.edu.au/about-independent-schools-nsw/independent-school-finder,2026-02-19,-33.85,151.0333
independent,Al-Faisal College - Campbelltown Campus,Minto,2566,02 9603 5866,alfaisalcollege@afc.nsw.edu.au,https://www.afc.nsw.edu.au/contact-us,https://www.afc.nsw.edu.au,https://www.isnsw.edu.au/about-independent-schools-nsw/independent-school-finder,2026-02-19,-34.0224,150.8296
independent,Al-Faisal College - Lakemba,Lakemba,2195,,alfaisalcollege@afc.nsw.edu.au,http://afc.nsw.edu.au/contact-us,http://afc.nsw.edu.au/,https://www.isnsw.edu.au/about-independent-schools-nsw/independent-school-finder,2026-02-19,-33.922,151.0716
independent,Al-Faisal College - Liverpool Campus,Austral,2179,+61 2 9606 0355,alfaisalcollege@afc.nsw.edu.au,https://www.afc.nsw.edu.au/contact-us,https://www.afc.nsw.edu.au,https://www.isnsw.edu.au/about-independent-schools-nsw/independent-school-finder,2026-02-19,-33.9698,150.7967
government,Albert Park Public School,East Lismore,2480,6621 3259,albertpk-p.school@det.nsw.edu.au,,https://albertpk-p.schools.nsw.gov.au,https://www.data.nsw.gov.au/data/dataset/nsw-education-nsw-public-schools-master-dataset,2026-02-19,-28.7493,153.2724
government,Albion Park High School,Albion Park,2527,4257 1744,albionpk-h.school@det.nsw.edu.au,,https://albionpk-h.schools.nsw.gov.au,https://www.data.nsw.gov.au/data/dataset/nsw-education-nsw-public-schools-master-dataset,2026-02-19,-34.5713,150.7757
government,Albion Park Public School,Albion Park,2527,4256 1244,albionpk-p.school@det.nsw.edu.au,,https://albionpk-p.schools.nsw.gov.au,https://www.data.nsw.gov.au/data/dataset/nsw-education-nsw-public-schools-master-dataset,2026-02-19,-34.5713,150.7757
government,Albion Park Rail Public School,Albion Park Rail,2527,4256 1287,albionpkr-p.school@det.nsw.edu.au,,https://albionpkr-p.schools.nsw.gov.au,https://www.data.nsw.gov.au/data/dataset/nsw-education-nsw-public-schools-master-dataset,2026-02-19,-34.5713,150.7757
government,Albury High School,Albury,2640,6021 3488,albury-h.school@det.nsw.edu.au,,https://albury-h.schools.nsw.gov.au,https://www.data.nsw.gov.au/data/dataset/nsw-education-nsw-public-schools-master-dataset,2026-02-19,-36.0865,146.9091
government,Albury North Public School,Albury,2640,6025 1730,alburynth-p.school@det.nsw.edu.au,,https://alburynth-p.schools.nsw.gov.au,https://www.data.nsw.gov.au/data/dataset/nsw-education-nsw-public-schools-master-dataset,2026-02-19,-36.0865,146.9091
government,Albury Public School,Albury,2640,02 6021 3849,albury-p.school@det.nsw.edu.au,,https://albury-p.schools.nsw.gov.au,https://www.data.nsw.gov.au/data/dataset/nsw-education-nsw-public-schools-master-dataset,2026-02-19,-36.0865,146.9091
government,Albury West Public School,Albury,2640,6021 2288,alburywest-p.school@det.nsw.edu.au,,https://alburywest-p.schools.nsw.gov.au,https://www.data.nsw.gov.au/data/dataset/nsw-education-nsw-public-schools-master-dataset,2026-02-19,-36.0865,146.9091
government,Aldavilla Public School,Yarravel,2440,6563 1141,aldavilla-p.school@det.nsw.edu.au,,https://aldavilla-p.schools.nsw.gov.au,https://www.data.nsw.gov.au/data/dataset/nsw-education-nsw-public-schools-master-dataset,2026-02-19,-31.1332,152.7514
independent,Alesco Secondary College,Cooks Hill,2300,+61 2 4925 4200,,,https://atwea.edu.au/high-school-at-alesco/,https://www.isnsw.edu.au/about-independent-schools-nsw/independent-school-finder,2026-02-19,-32.9295,151.7801
independent,Alesco Secondary College - Abermain Campus,Abermain,2326,+61 2 4925 4200,,,https://atwea.edu.au/high-school-at-alesco/,https://www.isnsw.edu.au/about-independent-schools-nsw/independent-school-finder,2026-02-19,-32.8276,151.4082
independent,Alesco Secondary College - Charlestown Campus,Charlestown,2290,+61 2 4925 4200,,,https://atwea.edu.au/high-school-at-alesco/,https://www.isnsw.edu.au/about-independent-schools-nsw/independent-school-finder,2026-02-19,-32.9937,151.722
independent,Alesco Secondary College - Coast Campus,Tuncurry,2324,+61 2 4925 4200,,,https://atwea.edu.au/high-school-at-alesco/,https://www.isnsw.edu.au/about-independent-schools-nsw/independent-school-finder,2026-02-19,-32.6478,151.7616
independent,Alesco Secondary College - Northlakes Campus,Argenton,2284,+61 2 4925 4200,,,https://atwea.edu.au/high-school-at-alesco/,https://www.isnsw.edu.au/about-independent-schools-nsw/independent-school-finder,2026-02-19,-32.9806,151.6184
independent,Alesco Secondary College - Raymond Terrace Campus,Raymond Terrace,2324,+61 2 4925 4200,,,https://atwea.edu.au/high-school-at-alesco/,https://www.isnsw.edu.au/about-independent-schools-nsw/independent-school-finder,2026-02-19,-32.6478,151.7616
independent,Alesco Secondary College - Tomaree Campus,Nelson Bay,2315,+61 2 4925 4200,,,https://atwea.edu.au/high-school-at-alesco/,https://www.isnsw.edu.au/about-independent-schools-nsw/independent-school-finder,2026-02-19,-32.7281,152.1496
independent,Alesco Secondary College - Woodberry Campus,Woodberry,2322,+61 2 4925 4200,,,https://atwea.edu.au/high-school-at-alesco/,https://www.isnsw.edu.au/about-independent-schools-nsw/independent-school-finder,2026-02-19,-32.7931,151.6769
government,Alexandria Park Community School,Alexandria,2015,9698 1967,alexparkcs-c.school@det.nsw.edu.au,,https://alexparkcs-c.schools.nsw.gov.au,https://www.data.nsw.gov.au/data/dataset/nsw-education-nsw-public-schools-master-dataset,2026-02-19,-33.9115,151.2004
government,Alfords Point Public School,Alfords Point,2234,9543 0185,alfordspt-p.school@det.nsw.edu.au,,https://alfordspt-p.schools.nsw.gov.au,https://www.data.nsw.gov.au/data/dataset/nsw-education-nsw-public-schools-master-dataset,2026-02-19,-34.0341,151.0119
catholic,All Hallows Catholic Primary School,Five Dock,2046,(02) 9713 4469,info@ahpsfivedock.catholic.edu.au,,https://ahpsfivedock.syd.catholic.edu.au,https://www.csnsw.catholic.edu.au/school-finder,2026-02-19,-33.8582,151.1309
catholic,All Hallows Catholic Primary School Gulgong,Gulgong,2852,(02) 6374 1582,allhallowsgulgong@bth.catholic.edu.au,,https://www.allhallowsgulgong.catholic.edu.au,https://www.csnsw.catholic.edu.au/school-finder,2026-02-19,-32.3818,149.2762
catholic,All Saints Catholic College,Liverpool,2170,(02) 9602 4555,info@ascc.catholic.edu.au,,https://ascc.syd.catholic.edu.au,https://www.csnsw.catholic.edu.au/school-finder,2026-02-19,-33.9522,150.8995
catholic,"All Saints Catholic College, Casula Campus",Casula,2170,(02) 9602 4555,info@ascc.catholic.edu.au,,https://ascc.syd.catholic.edu.au,https://www.csnsw.catholic.edu.au/school-finder,2026-02-19,-33.9522,150.8995
catholic,All Saints College,Maitland,2320,(02) 4933 6177,admin@maitlandsm.catholic.edu.au,,https://maitlandasc.catholic.edu.au,https://www.csnsw.catholic.edu.au/school-finder,2026-02-19,-32.7288,151.5345
catholic,All Saints College (St Peter's Campus),Maitland,2320,(02) 4933 6177,admin@maitlandsp.catholic.edu.au,,https://maitlandasc.catholic.edu.au,https://www.csnsw.catholic.edu.au/school-finder,2026-02-19,-32.7288,151.5345
independent,All Saints Grammar,Belmore,2192,+61 2 9704 6400,admin@allsaints.nsw.edu.au,https://www.allsaints.nsw.edu.au,https://www.allsaints.nsw.edu.au,https://www.isnsw.edu.au/about-independent-schools-nsw/independent-school-finder,2026-02-19,-33.919,151.0894
independent,All Saints Grammar Junior School,Belmore,2192,+61 2 9704 6400,admin@allsaints.nsw.edu.au,https://www.allsaints.nsw.edu.au,https://www.allsaints.nsw.edu.au,https://www.isnsw.edu.au/about-independent-schools-nsw/independent-school-finder,2026-02-19,-33.919,151.0894
catholic,All Saints Primary School,Tumbarumba,2653,(02) 6948 2395,info@asww.catholic.edu.au,,https://web.asww.catholic.edu.au,https://www.csnsw.catholic.edu.au/school-finder,2026-02-19,-35.7781,148.0117
government,Allambie Heights Public School,Allambie Heights,2100,9451 5440,allambieht-p.school@det.nsw.edu.au,,https://allambieht-p.schools.nsw.gov.au,https://www.data.nsw.gov.au/data/dataset/nsw-education-nsw-public-schools-master-dataset,2026-02-19,-33.7666,151.2498
independent,Allegra School Coffs Harbour,Coffs Harbour,2450,+61 2 6651 6898,,,https://www.allegraschool.nsw.edu.au,https://www.isnsw.edu.au/about-independent-schools-nsw/independent-school-finder,2026-02-19,-30.1574,153.0958
government,Alma Public School,Broken Hill,2880,08 8088 2181,alma-p.school@det.nsw.edu.au,,https://alma-p.schools.nsw.gov.au,https://www.data.nsw.gov.au/data/dataset/nsw-education-nsw-public-schools-master-dataset,2026-02-19,-31.8333,141.5102
independent,Alpha Omega Senior College,Auburn,2144,+61 2 9199 3900,theregistrar@aosc.nsw.edu.au,https://www.aosc.nsw.edu.au/contact-us,https://www.aosc.nsw.edu.au/,https://www.isnsw.edu.au/about-independent-schools-nsw/independent-school-finder,2026-02-19,-33.85,151.0333
independent,Alpha Omega Senior College - Queen Street Campus,Auburn,2144,+61 2 9199 3900,,,https://www.aosc.nsw.edu.au/enrol/,https://www.isnsw.edu.au/about-independent-schools-nsw/independent-school-finder,2026-02-19,-33.85,151.0333
government,Alstonville High School,Alstonville,2477,6628 5222,alstonvill-h.school@det.nsw.edu.au,,https://alstonvill-h.schools.nsw.gov.au,https://www.data.nsw.gov.au/data/dataset/nsw-education-nsw-public-schools-master-dataset,2026-02-19,-28.8902,153.4389
government,Alstonville Public School,Alstonville,2477,02 6628 0775,alstonvill-p.school@det.nsw.edu.au,,https://alstonvill-p.schools.nsw.gov.au,https://www.data.nsw.gov.au/data/dataset/nsw-education-nsw-public-schools-master-dataset,2026-02-19,-28.8902,153.4389
government,Ambarvale High School,Rosemeadow,2560,4627 1800,ambarvale-h.school@det.nsw.edu.au,,https://ambarvale-h.schools.nsw.gov.au,https://www.data.nsw.gov.au/data/dataset/nsw-education-nsw-public-schools-master-dataset,2026-02-19,-34.05,150.8333
government,Ambarvale Public School,Ambarvale,2560,4626 1485,ambarvale-p.school@det.nsw.edu.au,,https://ambarvale-p.schools.nsw.gov.au,https://www.data.nsw.gov.au/data/dataset/nsw-education-nsw-public-schools-master-dataset,2026-02-19,-34.05,150.8333
independent,Amity College - Auburn Campus,Auburn,2144,+61 2 8775 7600,,,https://www.amity.nsw.edu.au,https://www.isnsw.edu.au/about-independent-schools-nsw/independent-school-finder,2026-02-19,-33.85,151.0333
independent,Amity College - Illawarra Campus,Shellharbour,2529,+61 2 4296 6000,,,https://www.amity.nsw.edu.au/,https://www.isnsw.edu.au/about-independent-schools-nsw/independent-school-finder,2026-02-19,-34.5814,150.8435
independent,Amity College - Leppington Campus,Leppington,2179,+61 2 9765 2300,,,https://www.amity.nsw.edu.au/,https://www.isnsw.edu.au/about-independent-schools-nsw/independent-school-finder,2026-02-19,-33.9698,150.7967
independent,Amity College - Prestons Campus,Prestons,2170,+61 2 8784 3111,,,https://www.amity.nsw.edu.au,https://www.isnsw.edu.au/about-independent-schools-nsw/independent-school-finder,2026-02-19,-33.9522,150.8995
government,Anna Bay Public School,Anna Bay,2316,4982 1187,annabay-p.school@det.nsw.edu.au,,https://annabay-p.schools.nsw.gov.au,https://www.data.nsw.gov.au/data/dataset/nsw-education-nsw-public-schools-master-dataset,2026-02-19,-32.7858,152.0896
government,Annandale North Public School,Annandale,2038,9660 3972,annandalen-p.school@det.nsw.edu.au,,https://annandalen-p.schools.nsw.gov.au,https://www.data.nsw.gov.au/data/dataset/nsw-education-nsw-public-schools-master-dataset,2026-02-19,-33.8833,151.1667
government,Annandale Public School,Annandale,2038,9516 3711,annandale-p.school@det.nsw.edu.au,,https://annandale-p.schools.nsw.gov.au,https://www.data.nsw.gov.au/data/dataset/nsw-education-nsw-public-schools-master-dataset,2026-02-19,-33.8833,151.1667
government,Annangrove Public School,Annangrove,2156,9679 1303,annangrove-p.school@det.nsw.edu.au,,https://annangrove-p.schools.nsw.gov.au,https://www.data.nsw.gov.au/data/dataset/nsw-education-nsw-public-schools-master-dataset,2026-02-19,-33.7,151.0
government,Anson Street School,Orange,2800,6362 4563,ansonst-s.school@det.nsw.edu.au,,https://ansonst-s.schools.nsw.gov.au,https://www.data.nsw.gov.au/data/dataset/nsw-education-nsw-public-schools-master-dataset,2026-02-19,-33.2547,149.156
government,Anzac Park Public School,Cammeray,2062,9922 3288,anzacpark-p.school@det.nsw.edu.au,,https://anzacpark-p.schools.nsw.gov.au,https://www.data.nsw.gov.au/data/dataset/nsw-education-nsw-public-schools-master-dataset,2026-02-19,-33.8213,151.2161
government,Appin Public School,Appin,2560,4631 1220,appin-p.school@det.nsw.edu.au,,https://appin-p.schools.nsw.gov.au,https://www.data.nsw.gov.au/data/dataset/nsw-education-nsw-public-schools-master-dataset,2026-02-19,-34.05,150.8333
catholic,Aquinas Catholic College,Menai,2234,(02) 9543 0188,info@aquinasmenai.catholic.edu.au,,https://aquinasmenai.syd.catholic.edu.au,https://www.csnsw.catholic.edu.au/school-finder,2026-02-19,-34.0341,151.0119
government,Arcadia Public School,Arcadia,2159,9653 1207,arcadia-p.school@det.nsw.edu.au,,https://arcadia-p.schools.nsw.gov.au,https://www.data.nsw.gov.au/data/dataset/nsw-education-nsw-public-schools-master-dataset,2026-02-19,-33.6155,151.0914
government,Arcadia Vale Public School,Arcadia Vale,2283,4975 1181,arcadiaval-p.school@det.nsw.edu.au,,https://arcadiaval-p.schools.nsw.gov.au,https://www.data.nsw.gov.au/data/dataset/nsw-education-nsw-public-schools-master-dataset,2026-02-19,-33.0423,151.6116
independent,Arden Anglican School,Beecroft,2119,+61 2 9484 1146,contact@arden.nsw.edu.au,https://www.arden.nsw.edu.au/,https://www.arden.nsw.edu.au,https://www.isnsw.edu.au/about-independent-schools-nsw/independent-school-finder,2026-02-19,-33.7587,151.0723
independent,Arden Anglican School - Epping Campus,Epping,2121,+61 2 9869 2644,contact@arden.nsw.edu.au,https://www.arden.nsw.edu.au/,https://www.arden.nsw.edu.au,https://www.isnsw.edu.au/about-independent-schools-nsw/independent-school-finder,2026-02-19,-33.7594,151.0925
government,Ardlethan Central School,Ardlethan,2665,6978 2046,ardlethan-c.school@det.nsw.edu.au,,https://ardlethan-c.schools.nsw.gov.au,https://www.data.nsw.gov.au/data/dataset/nsw-education-nsw-public-schools-master-dataset,2026-02-19,-34.3493,147.2218
government,Argenton Public School,Argenton,2284,4958 1805,argenton-p.school@det.nsw.edu.au,,https://argenton-p.schools.nsw.gov.au,https://www.data.nsw.gov.au/data/dataset/nsw-education-nsw-public-schools-master-dataset,2026-02-19,-32.9806,151.6184
government,Ariah Park Central School,Ariah Park,2665,6974 1105,ariahpark-c.school@det.nsw.edu.au,,https://ariahpark-c.schools.nsw.gov.au,https://www.data.nsw.gov.au/data/dataset/nsw-education-nsw-public-schools-master-dataset,2026-02-19,-34.3493,147.2218
independent,Arise Christian College,Metford,2323,02 4933 7633,office@arisecc.nsw.edu.au,https://www.arisecc.nsw.edu.au/,https://www.maitlandcs.nsw.edu.au/arise-christian-college/,https://www.isnsw.edu.au/about-independent-schools-nsw/independent-school-finder,2026-02-19,-32.8305,151.5312
independent,Arkana College,Kingsgrove,2208,+61 2 9502 3655,,,https://www.arkana.nsw.edu.au,https://www.isnsw.edu.au/about-independent-schools-nsw/independent-school-finder,2026-02-19,-33.9393,151.0993
government,Armidale City Public School,Armidale,2350,6772 3420,armidalec-p.school@det.nsw.edu.au,,https://armidalec-p.schools.nsw.gov.au,https://www.data.nsw.gov.au/data/dataset/nsw-education-nsw-public-schools-master-dataset,2026-02-19,-30.6152,151.7679
government,Armidale Secondary College,Armidale,2350,02 6776 7400,armidale-s.school@det.nsw.edu.au,,https://armidale-s.schools.nsw.gov.au,https://www.data.nsw.gov.au/data/dataset/nsw-education-nsw-public-schools-master-dataset,2026-02-19,-30.6152,151.7679
government,Arncliffe Public School,Arncliffe,2205,9567 5060,arncliffe-p.school@det.nsw.edu.au,,https://arncliffe-p.schools.nsw.gov.au,https://www.data.nsw.gov.au/data/dataset/nsw-education-nsw-public-schools-master-dataset,2026-02-19,-33.9313,151.1522
government,Arncliffe West Infants School,Arncliffe,2205,9567 7062,arncliffew-p.school@det.nsw.edu.au,,https://arncliffew-p.schools.nsw.gov.au,https://www.data.nsw.gov.au/data/dataset/nsw-education-nsw-public-schools-master-dataset,2026-02-19,-33.9313,151.1522
independent,Arndell Anglican College,Oakville,2765,+61 2 4572 3633,enquiries@arndell.nsw.edu.au,https://www.arndell.nsw.edu.au/search,https://www.arndell.nsw.edu.au,https://www.isnsw.edu.au/about-independent-schools-nsw/independent-school-finder,2026-02-19,-33.5922,150.9198
government,Arndell School,North Ryde,2113,9888 3737,arndell-s.school@det.nsw.edu.au,,https://arndell-s.schools.nsw.gov.au,https://www.data.nsw.gov.au/data/dataset/nsw-education-nsw-public-schools-master-dataset,2026-02-19,-33.7956,151.126
independent,Arrahman College,Austral,2179,+61 2 8107 6000,admin@arrahmancollege.nsw.edu.au,https://arrahmancollege.nsw.edu.au/,https://www.arrahmancollege.nsw.edu.au,https://www.isnsw.edu.au/about-independent-schools-nsw/independent-school-finder,2026-02-19,-33.9698,150.7967
government,Arranounbai School,Frenchs Forest,2086,9452 3168,arranoun-s.school@det.nsw.edu.au,,https://arranoun-s.schools.nsw.gov.au,https://www.data.nsw.gov.au/data/dataset/nsw-education-nsw-public-schools-master-dataset,2026-02-19,-33.7482,151.2232
government,Artarmon Public School,Artarmon,2064,9411 1950,artarmon-p.school@det.nsw.edu.au,,https://artarmon-p.schools.nsw.gov.au,https://www.data.nsw.gov.au/data/dataset/nsw-education-nsw-public-schools-master-dataset,2026-02-19,-33.8167,151.1833
government,Arthur Phillip High School,Parramatta,2150,8855 8100,arthurphil-h.school@det.nsw.edu.au,,https://arthurphil-h.schools.nsw.gov.au,https://www.data.nsw.gov.au/data/dataset/nsw-education-nsw-public-schools-master-dataset,2026-02-19,-33.8178,151.0035
independent,Ascham School,Edgecliff,2027,+61 2 8356 7000,,https://www.ascham.nsw.edu.au,https://www.ascham.nsw.edu.au,https://www.isnsw.edu.au/about-independent-schools-nsw/independent-school-finder,2026-02-19,-33.8667,151.25
government,Ashbury Public School,Ashbury,2193,9798 4509,ashbury-p.school@det.nsw.edu.au,,https://ashbury-p.schools.nsw.gov.au,https://www.data.nsw.gov.au/data/dataset/nsw-education-nsw-public-schools-master-dataset,2026-02-19,-33.8978,151.1196
government,Ashcroft High School,Ashcroft,2168,9607 8011,ashcroft-h.school@det.nsw.edu.au,,https://ashcroft-h.schools.nsw.gov.au,https://www.data.nsw.gov.au/data/dataset/nsw-education-nsw-public-schools-master-dataset,2026-02-19,-33.9209,150.8847
government,Ashcroft Public School,Ashcroft,2168,9607 8202,ashcroft-p.school@det.nsw.edu.au,,https://ashcroft-p.schools.nsw.gov.au,https://www.data.nsw.gov.au/data/dataset/nsw-education-nsw-public-schools-master-dataset,2026-02-19,-33.9209,150.8847
government,Ashfield Boys High School,Ashfield,2131,9798 6620,ashfieldbo-h.school@det.nsw.edu.au,,https://ashfieldbo-h.schools.nsw.gov.au,https://www.data.nsw.gov.au/data/dataset/nsw-education-nsw-public-schools-master-dataset,2026-02-19,-33.8883,151.1227
government,Ashfield Public School,Ashfield,2131,9798 4400,ashfield-p.school@det.nsw.edu.au,,https://ashfield-p.schools.nsw.gov.au,https://www.data.nsw.gov.au/data/dataset/nsw-education-nsw-public-schools-master-dataset,2026-02-19,-33.8883,151.1227
government,Ashford Central School,Ashford,2361,6725 4101,ashford-c.school@det.nsw.edu.au,,https://ashford-c.schools.nsw.gov.au,https://www.data.nsw.gov.au/data/dataset/nsw-education-nsw-public-schools-master-dataset,2026-02-19,-29.0479,151.2757
government,Ashmont Public School,Wagga Wagga,2650,6931 4944,ashmont-p.school@det.nsw.edu.au,,https://ashmont-p.schools.nsw.gov.au,https://www.data.nsw.gov.au/data/dataset/nsw-education-nsw-public-schools-master-dataset,2026-02-19,-35.4445,147.608
government,Ashtonfield Public School,Ashtonfield,2323,4934 3584,ashtonfield-p.school@det.nsw.edu.au,,https://ashtonfield-p.schools.nsw.gov.au,https://www.data.nsw.gov.au/data/dataset/nsw-education-nsw-public-schools-master-dataset,2026-02-19,-32.8305,151.5312
independent,Aspect Central Coast School (Main site),Terrigal,2260,+61 2 4382 8800,,https://www.autismspectrum.org.au/search,https://www.autismspectrum.org.au,https://www.isnsw.edu.au/about-independent-schools-nsw/independent-school-finder,2026-02-19,-33.4155,151.4456
independent,Aspect Central Coast School Senior College,Terrigal,2260,,,,,https://www.isnsw.edu.au/about-independent-schools-nsw/independent-school-finder,2026-02-19,-33.4155,151.4456
independent,"Aspect Central Coast School, East Gosford",East Gosford,2250,,,,,https://www.isnsw.edu.au/about-independent-schools-nsw/independent-school-finder,2026-02-19,-33.205,151.1759
independent,"Aspect Central Coast School, Noraville",Nan,,,,https://www.autismspectrum.org.au/search,https://www.autismspectrum.org.au,https://www.isnsw.edu.au/about-independent-schools-nsw/independent-school-finder,2026-02-19,,
independent,"Aspect Central Coast School, Tuggerah",Tuggerah,2259,,,,,https://www.isnsw.edu.au/about-independent-schools-nsw/independent-school-finder,2026-02-19,-33.2323,151.4367
independent,"Aspect Central Coast School, Woy Woy",Woy Woy South,2256,,,,,https://www.isnsw.edu.au/about-independent-schools-nsw/independent-school-finder,2026-02-19,-33.5444,151.3034
independent,Aspect Hunter School (Main site),Thornton,2322,+61 2 4922 5900,,https://www.autismspectrum.org.au/search,https://www.autismspectrum.org.au,https://www.isnsw.edu.au/about-independent-schools-nsw/independent-school-finder,2026-02-19,-32.7931,151.6769
independent,"Aspect Hunter School, Abermain",Nan,,,,,,https://www.isnsw.edu.au/about-independent-schools-nsw/independent-school-finder,2026-02-19,,
independent,"Aspect Hunter School, Muswellbrook",Muswellbrook,2333,,,,,https://www.isnsw.edu.au/about-independent-schools-nsw/independent-school-finder,2026-02-19,-32.3333,150.5667
independent,"Aspect Hunter School, Port Macquarie High School",Nan,,,,,,https://www.isnsw.edu.au/about-independent-schools-nsw/independent-school-finder,2026-02-19,,
independent,"Aspect Hunter School, Port Macquarie Primary",Nan,,,,,,https://www.isnsw.edu.au/about-independent-schools-nsw/independent-school-finder,2026-02-19,,
independent,"Aspect Hunter School, Tarro",Nan,,,,,,https://www.isnsw.edu.au/about-independent-schools-nsw/independent-school-finder,2026-02-19,,
independent,"Aspect Hunter School, Waratah West",Nan,,,,,,https://www.isnsw.edu.au/about-independent-schools-nsw/independent-school-finder,2026-02-19,,
independent,Aspect Macarthur School (Main site),Cobbitty,2570,+61 2 4651 3901,,http://www.autismspectrum.org.au/search,http://www.autismspectrum.org.au,https://www.isnsw.edu.au/about-independent-schools-nsw/independent-school-finder,2026-02-19,-34.0799,150.57
independent,"Aspect Macarthur School, Airds",Campbelltown,2560,,,,,https://www.isnsw.edu.au/about-independent-schools-nsw/independent-school-finder,2026-02-19,-34.05,150.8333
independent,"Aspect Macarthur School, Campbelltown",Campbelltown,2560,,,,,https://www.isnsw.edu.au/about-independent-schools-nsw/independent-school-finder,2026-02-19,-34.05,150.8333
independent,"Aspect Macarthur School, Holsworthy",Holsworthy,2173,+61 2 4651 3901,,http://www.autismspectrum.org.au/search,http://www.autismspectrum.org.au,https://www.isnsw.edu.au/about-independent-schools-nsw/independent-school-finder,2026-02-19,-33.9544,150.9445
independent,"Aspect Macarthur School, Minto",Minto,2566,+61 2 4651 3901,,http://www.autismspectrum.org.au/search,http://www.autismspectrum.org.au,https://www.isnsw.edu.au/about-independent-schools-nsw/independent-school-finder,2026-02-19,-34.0224,150.8296
independent,"Aspect Macarthur School, Northern Rivers Coffs Harbour",Coffs Harbour,2450,+61 2 4651 3901,,http://www.autismspectrum.org.au/search,http://www.autismspectrum.org.au,https://www.isnsw.edu.au/about-independent-schools-nsw/independent-school-finder,2026-02-19,-30.1574,153.0958
independent,"Aspect Macarthur School, West Hoxton",West Hoxton,2171,+61 2 4651 3901,,http://www.autismspectrum.org.au/search,http://www.autismspectrum.org.au,https://www.isnsw.edu.au/about-independent-schools-nsw/independent-school-finder,2026-02-19,-33.8892,150.8514
independent,Aspect Riverina School (Main site),Albury,2640,+61 2 6057 3777,,http://www.autismspectrum.org.au/search,http://www.autismspectrum.org.au,https://www.isnsw.edu.au/about-independent-schools-nsw/independent-school-finder,2026-02-19,-36.0865,146.9091
independent,"Aspect Riverina School, Kiewa Street Albury",Albury,2640,+61 2 6040 6826,,http://www.autismspectrum.org.au/search,http://www.autismspectrum.org.au,https://www.isnsw.edu.au/about-independent-schools-nsw/independent-school-finder,2026-02-19,-36.0865,146.9091
independent,"Aspect Riverina School, Moresby Park Centre",North Albury,2640,,,,,https://www.isnsw.edu.au/about-independent-schools-nsw/independent-school-finder,2026-02-19,-36.0865,146.9091
independent,"Aspect Riverina School, North Albury",Albury,2640,+61 2 6040 6826,,http://www.autismspectrum.org.au/search,http://www.autismspectrum.org.au,https://www.isnsw.edu.au/about-independent-schools-nsw/independent-school-finder,2026-02-19,-36.0865,146.9091
independent,"Aspect Riverina School, Wagga",Wagga Wagga,2678,+61 2 6922 5167,,http://www.autismspectrum.org.au/search,http://www.autismspectrum.org.au,https://www.isnsw.edu.au/about-independent-schools-nsw/independent-school-finder,2026-02-19,-35.0608,147.3542
independent,"Aspect Riverina School, Wagga Wagga",Kooringal,2650,+61 2 6922 5167,,http://www.autismspectrum.org.au/search,http://www.autismspectrum.org.au,https://www.isnsw.edu.au/about-independent-schools-nsw/independent-school-finder,2026-02-19,-35.4445,147.608
independent,Aspect South Coast School (Main site),Corrimal,2518,+61 2 4285 2393,,http://www.autismspectrum.org.au/search,http://www.autismspectrum.org.au,https://www.isnsw.edu.au/about-independent-schools-nsw/independent-school-finder,2026-02-19,-34.3761,150.9108
independent,"Aspect South Coast School, Albion Park",Albion Park,2527,,,,,https://www.isnsw.edu.au/about-independent-schools-nsw/independent-school-finder,2026-02-19,-34.5713,150.7757
independent,"Aspect South Coast School, Barrack Heights",Nan,,,,,,https://www.isnsw.edu.au/about-independent-schools-nsw/independent-school-finder,2026-02-19,,
independent,"Aspect South Coast School, Bellambi",Nan,,,,,,https://www.isnsw.edu.au/about-independent-schools-nsw/independent-school-finder,2026-02-19,,
independent,"Aspect South Coast School, Bulli",Bulli,2516,,,,,https://www.isnsw.edu.au/about-independent-schools-nsw/independent-school-finder,2026-02-19,-34.3383,150.9135
independent,"Aspect South Coast School, Farmborough Heights",Unanderra,2526,,,,,https://www.isnsw.edu.au/about-independent-schools-nsw/independent-school-finder,2026-02-19,-34.4455,150.823
independent,"Aspect South Coast School, Saints Peter and Paul Kiama",Kiama,2533,,,,,https://www.isnsw.edu.au/about-independent-schools-nsw/independent-school-finder,2026-02-19,-34.6701,150.8231
independent,"Aspect South Coast School, Unanderra",Unanderra,2526,,,,,https://www.isnsw.edu.au/about-independent-schools-nsw/independent-school-finder,2026-02-19,-34.4455,150.823
independent,"Aspect South Coast School, Wollongong University",Wollongong,2522,,,,,https://www.isnsw.edu.au/about-independent-schools-nsw/independent-school-finder,2026-02-19,-34.5321,150.8196
independent,Aspect South East Sydney School (Main site),Peakhurst Heights,2210,+61 2 9534 4758,,https://www.autismspectrum.org.au/search,https://www.autismspectrum.org.au/,https://www.isnsw.edu.au/about-independent-schools-nsw/independent-school-finder,2026-02-19,-33.9827,151.0418
independent,"Aspect South East Sydney School, Auburn",Nan,,,,,,https://www.isnsw.edu.au/about-independent-schools-nsw/independent-school-finder,2026-02-19,,
independent,"Aspect South East Sydney School, Belfield",Nan,,,,,,https://www.isnsw.edu.au/about-independent-schools-nsw/independent-school-finder,2026-02-19,,
independent,"Aspect South East Sydney School, Caringbah",Nan,,,,,,https://www.isnsw.edu.au/about-independent-schools-nsw/independent-school-finder,2026-02-19,,
independent,"Aspect South East Sydney School, Croydon",Croydon,2132,+61 2 9534 4758,,https://www.autismspectrum.org.au/search,https://www.autismspectrum.org.au/,https://www.isnsw.edu.au/about-independent-schools-nsw/independent-school-finder,2026-02-19,-33.8833,151.1167
independent,"Aspect South East Sydney School, Hurstville",Nan,,,,,,https://www.isnsw.edu.au/about-independent-schools-nsw/independent-school-finder,2026-02-19,,
independent,"Aspect South East Sydney School, Kareela",Nan,,,,,,https://www.isnsw.edu.au/about-independent-schools-nsw/independent-school-finder,2026-02-19,,
independent,"Aspect South East Sydney School, Leichhardt",Nan,,,,,,https://www.isnsw.edu.au/about-independent-schools-nsw/independent-school-finder,2026-02-19,,
independent,"Aspect South East Sydney School, Loftus",Loftus,2232,,,,,https://www.isnsw.edu.au/about-independent-schools-nsw/independent-school-finder,2026-02-19,-34.0244,151.0386
independent,"Aspect South East Sydney School, Maroubra",Nan,,,,,,https://www.isnsw.edu.au/about-independent-schools-nsw/independent-school-finder,2026-02-19,,
independent,"Aspect South East Sydney School, Marrickville",Marrickville,2204,+61 2 9560 0249,,http://www.autismspectrum.org.au/search,http://www.autismspectrum.org.au,https://www.isnsw.edu.au/about-independent-schools-nsw/independent-school-finder,2026-02-19,-33.9074,151.1555
independent,"Aspect South East Sydney School, Menai",Nan,,,,,,https://www.isnsw.edu.au/about-independent-schools-nsw/independent-school-finder,2026-02-19,,
independent,"Aspect South East Sydney School, Regents Park",Nan,,,,https://www.autismspectrum.org.au/search,https://www.autismspectrum.org.au/,https://www.isnsw.edu.au/about-independent-schools-nsw/independent-school-finder,2026-02-19,,
independent,Aspect Vern Barnett School (Main site),Forestville,2087,+61 2 9454 8359,,,https://www.autismspectrum.org.au/school/aspect-vern-barnett-school-0,https://www.isnsw.edu.au/about-independent-schools-nsw/independent-school-finder,2026-02-19,-33.7745,151.2203
independent,"Aspect Vern Barnett School, Eastwood",Nan,,,,,,https://www.isnsw.edu.au/about-independent-schools-nsw/independent-school-finder,2026-02-19,,
independent,"Aspect Vern Barnett School, Forestville",Nan,,,,,,https://www.isnsw.edu.au/about-independent-schools-nsw/independent-school-finder,2026-02-19,,
independent,"Aspect Vern Barnett School, Lane Cove",Nan,,,,,,https://www.isnsw.edu.au/about-independent-schools-nsw/independent-school-finder,2026-02-19,,
independent,"Aspect Vern Barnett School, Mona Vale",Nan,,,,,,https://www.isnsw.edu.au/about-independent-schools-nsw/independent-school-finder,2026-02-19,,
independent,"Aspect Vern Barnett School, St Ives",Nan,,,,,,https://www.isnsw.edu.au/about-independent-schools-nsw/independent-school-finder,2026-02-19,,
independent,Aspect Western Sydney School (Main site),Wetherill Park,2164,+61 2 8786 3000,,https://www.autismspectrum.org.au/search,https://www.autismspectrum.org.au,https://www.isnsw.edu.au/about-independent-schools-nsw/independent-school-finder,2026-02-19,-33.8414,150.9605
independent,"Aspect Western Sydney School, Blacktown",Nan,,,,,,https://www.isnsw.edu.au/about-independent-schools-nsw/independent-school-finder,2026-02-19,,
independent,"Aspect Western Sydney School, Bourke Street, Richmond",Nan,,,,,,https://www.isnsw.edu.au/about-independent-schools-nsw/independent-school-finder,2026-02-19,,
independent,"Aspect Western Sydney School, Castle Hill",Nan,,,,,,https://www.isnsw.edu.au/about-independent-schools-nsw/independent-school-finder,2026-02-19,,
independent,"Aspect Western Sydney School, Hills Shire",Gables,2765,,,https://www.aspect.org.au/search,https://www.aspect.org.au/our-services/going-to-school/hills-shire-school,https://www.isnsw.edu.au/about-independent-schools-nsw/independent-school-finder,2026-02-19,-33.5922,150.9198
independent,"Aspect Western Sydney School, Kemps Creek - Emmaus",Nan,,,,,,https://www.isnsw.edu.au/about-independent-schools-nsw/independent-school-finder,2026-02-19,,
independent,"Aspect Western Sydney School, Kemps Creek - Trinity",Nan,,,,,,https://www.isnsw.edu.au/about-independent-schools-nsw/independent-school-finder,2026-02-19,,
independent,"Aspect Western Sydney School, Lawson",Nan,,,,,,https://www.isnsw.edu.au/about-independent-schools-nsw/independent-school-finder,2026-02-19,,
independent,"Aspect Western Sydney School, Quakers Road, Marayong",Marayong,2148,,,,,https://www.isnsw.edu.au/about-independent-schools-nsw/independent-school-finder,2026-02-19,-33.7482,150.8927
independent,"Aspect Western Sydney School, Schofields",Schofields,,,,,,https://www.isnsw.edu.au/about-independent-schools-nsw/independent-school-finder,2026-02-19,,
independent,"Aspect Western Sydney School, Smithfield",Nan,,,,,,https://www.isnsw.edu.au/about-independent-schools-nsw/independent-school-finder,2026-02-19,,
independent,"Aspect Western Sydney School, Springwood",Nan,,,,,,https://www.isnsw.edu.au/about-independent-schools-nsw/independent-school-finder,2026-02-19,,
independent,"Aspect Western Sydney School, St Andrews College Senior Campus",Marayong,2148,,,,,https://www.isnsw.edu.au/about-independent-schools-nsw/independent-school-finder,2026-02-19,-33.7482,150.8927
independent,"Aspect Western Sydney School, St Joseph's",Nan,,,,,,https://www.isnsw.edu.au/about-independent-schools-nsw/independent-school-finder,2026-02-19,,
independent,"Aspect Western Sydney School, St Thomas Aquinas",Springwood,2777,,,,,https://www.isnsw.edu.au/about-independent-schools-nsw/independent-school-finder,2026-02-19,-33.6985,150.6346
independent,"Aspect Western Sydney School, Windsor Street, Richmond",Nan,,,,,,https://www.isnsw.edu.au/about-independent-schools-nsw/independent-school-finder,2026-02-19,,
government,Asquith High School,Asquith,2077,9477 6411,asquith-h.school@det.nsw.edu.au,,https://asquith-h.schools.nsw.gov.au,https://www.data.nsw.gov.au/data/dataset/nsw-education-nsw-public-schools-master-dataset,2026-02-19,-33.7024,151.0993
government,Asquith Public School,Asquith,2077,9477 1258,asquith-p.school@det.nsw.edu.au,,https://asquith-p.schools.nsw.gov.au,https://www.data.nsw.gov.au/data/dataset/nsw-education-nsw-public-schools-master-dataset,2026-02-19,-33.7024,151.0993
government,Athelstane Public School,Arncliffe,2205,9567 3550,athelstane-p.school@det.nsw.edu.au,,https://athelstane-p.schools.nsw.gov.au,https://www.data.nsw.gov.au/data/dataset/nsw-education-nsw-public-schools-master-dataset,2026-02-19,-33.9313,151.1522
government,Attunga Public School,Attunga,2345,6769 5554,attunga-p.school@det.nsw.edu.au,,https://attunga-p.schools.nsw.gov.au,https://www.data.nsw.gov.au/data/dataset/nsw-education-nsw-public-schools-master-dataset,2026-02-19,-30.8565,150.9038
government,Auburn Girls High School,Auburn,2144,9649 6949,auburng-h.school@det.nsw.edu.au,,https://auburng-h.schools.nsw.gov.au/,https://www.data.nsw.gov.au/data/dataset/nsw-education-nsw-public-schools-master-dataset,2026-02-19,-33.85,151.0333
government,Auburn North Public School,Auburn,2144,9748 1036,auburnnth-p.school@det.nsw.edu.au,,https://auburnnth-p.schools.nsw.gov.au,https://www.data.nsw.gov.au/data/dataset/nsw-education-nsw-public-schools-master-dataset,2026-02-19,-33.85,151.0333
government,Auburn Public School,Auburn,2144,02 9646 2200,auburn-p.school@det.nsw.edu.au,,https://auburn-p.schools.nsw.gov.au,https://www.data.nsw.gov.au/data/dataset/nsw-education-nsw-public-schools-master-dataset,2026-02-19,-33.85,151.0333
government,Auburn West Public School,Auburn,2144,9649 6774,auburnwest-p.school@det.nsw.edu.au,,https://auburnwest-p.schools.nsw.gov.au,https://www.data.nsw.gov.au/data/dataset/nsw-education-nsw-public-schools-master-dataset,2026-02-19,-33.85,151.0333
government,Aurora College,Lindfield,2070,1300 287 629,auroracoll-h.school@det.nsw.edu.au,,https://aurora.schools.nsw.gov.au,https://www.data.nsw.gov.au/data/dataset/nsw-education-nsw-public-schools-master-dataset,2026-02-19,-33.7833,151.1667
independent,Aurora Southern Highlands Steiner School,Bowral,2575,+61 2 4862 2300,,,https://www.aurorasteiner.nsw.edu.au,https://www.isnsw.edu.au/about-independent-schools-nsw/independent-school-finder,2026-02-19,-34.4274,150.484
government,Austinmer Public School,Austinmer,2515,4267 1311,austinmer-p.school@det.nsw.edu.au,,https://austinmer-p.schools.nsw.gov.au,https://www.data.nsw.gov.au/data/dataset/nsw-education-nsw-public-schools-master-dataset,2026-02-19,-34.261,150.9695
government,Austral Public School,Austral,2179,9606 0312,austral-p.school@det.nsw.edu.au,,https://austral-p.schools.nsw.gov.au,https://www.data.nsw.gov.au/data/dataset/nsw-education-nsw-public-schools-master-dataset,2026-02-19,-33.9698,150.7967
government,Australia Street Infants School,Newtown,2042,9557 5377,australist-p.school@det.nsw.edu.au,,https://australist-p.schools.nsw.gov.au,https://www.data.nsw.gov.au/data/dataset/nsw-education-nsw-public-schools-master-dataset,2026-02-19,-33.9005,151.1731
independent,Australian Christian College - Distance Education,Riverstone,2765,,,,https://www.acc.edu.au/distance-education/,https://www.isnsw.edu.au/about-independent-schools-nsw/independent-school-finder,2026-02-19,-33.5922,150.9198
independent,Australian Christian College - Marsden Park,Riverstone,2765,02 9421 7111,,,http://marsdenpark.acc.edu.au/,https://www.isnsw.edu.au/about-independent-schools-nsw/independent-school-finder,2026-02-19,-33.5922,150.9198
independent,Australian Christian College - Singleton,Singleton,2330,+61 2 6572 1011,,,http://singleton.acc.edu.au,https://www.isnsw.edu.au/about-independent-schools-nsw/independent-school-finder,2026-02-19,-32.6377,151.093
independent,"Australian International Academy, Kellyville",North Kellyville,2155,+61 2 8801 3100,adminkellyville@aia.nsw.edu.au,https://www.aia.nsw.edu.au/,https://www.aia.nsw.edu.au,https://www.isnsw.edu.au/about-independent-schools-nsw/independent-school-finder,2026-02-19,-33.6999,150.9411
independent,"Australian International Academy, Strathfield",Strathfield,2135,+61 2 9642 0104,adminnsw@aia.nsw.edu.au,https://strathfield.aia.nsw.edu.au/,https://strathfield.aia.nsw.edu.au/,https://www.isnsw.edu.au/about-independent-schools-nsw/independent-school-finder,2026-02-19,-33.881,151.0799
independent,Australian Islamic College of Sydney,Mount Druitt,2770,+61 2 9933 6900,info@aics.nsw.edu.au,https://www.aics.nsw.edu.au,https://www.aics.nsw.edu.au,https://www.isnsw.edu.au/about-independent-schools-nsw/independent-school-finder,2026-02-19,-33.7441,150.8064
independent,Australian Islamic College of Sydney Senior School,Rooty Hill,2766,,info@aics.nsw.edu.au,https://www.aics.nsw.edu.au/,https://www.aics.nsw.edu.au/,https://www.isnsw.edu.au/about-independent-schools-nsw/independent-school-finder,2026-02-19,-33.8063,150.8612
independent,Australian Performing Arts Grammar School,Glebe,2037,02 9518 5123,,,http://www.apgs.nsw.edu.au,https://www.isnsw.edu.au/about-independent-schools-nsw/independent-school-finder,2026-02-19,-33.8788,151.1843
government,Avalon Public School,Avalon Beach,2107,9973 1439,avalon-p.school@det.nsw.edu.au,,https://avalon-p.schools.nsw.gov.au,https://www.data.nsw.gov.au/data/dataset/nsw-education-nsw-public-schools-master-dataset,2026-02-19,-33.6342,151.3234
government,Avoca Beach Public School,Avoca Beach,2251,4382 1416,avocabch-p.school@det.nsw.edu.au,,https://avocabch-p.schools.nsw.gov.au,https://www.data.nsw.gov.au/data/dataset/nsw-education-nsw-public-schools-master-dataset,2026-02-19,-33.4976,151.3808
independent,Avondale School,Cooranbong,2265,+61 2 4977 0200,,https://www.avondaleschool.nsw.edu.au/search,https://www.avondaleschool.nsw.edu.au,https://www.isnsw.edu.au/about-independent-schools-nsw/independent-school-finder,2026-02-19,-33.0667,151.4167
government,Awaba Public School,Awaba,2283,4959 2502,awaba-p.school@det.nsw.edu.au,,https://awaba-p.schools.nsw.gov.au,https://www.data.nsw.gov.au/data/dataset/nsw-education-nsw-public-schools-master-dataset,2026-02-19,-33.0423,151.6116
government,Awabakal Environmental Education Centre,Shortland,2307,4944 8233,awabakal-e.school@det.nsw.edu.au,,https://awabakal-e.schools.nsw.gov.au/,https://www.data.nsw.gov.au/data/dataset/nsw-education-nsw-public-schools-master-dataset,2026-02-19,-32.8788,151.691
government,Balarang Public School,Oak Flats,2529,4256 1846,balarang-p.school@det.nsw.edu.au,,https://balarang-p.schools.nsw.gov.au,https://www.data.nsw.gov.au/data/dataset/nsw-education-nsw-public-schools-master-dataset,2026-02-19,-34.5814,150.8435
government,Bald Blair Public School,Guyra,2365,6779 1578,baldblair-p.school@det.nsw.edu.au,,https://baldblair-p.schools.nsw.gov.au,https://www.data.nsw.gov.au/data/dataset/nsw-education-nsw-public-schools-master-dataset,2026-02-19,-30.1333,151.8667
government,Bald Face Public School,Blakehurst,2221,9546 1565,baldface-p.school@det.nsw.edu.au,,https://baldface-p.schools.nsw.gov.au,https://www.data.nsw.gov.au/data/dataset/nsw-education-nsw-public-schools-master-dataset,2026-02-19,-33.9867,151.1173
government,Balgowlah Heights Public School,Balgowlah,2093,9948 2225,balgowlaht-p.school@det.nsw.edu.au,,https://balgowlaht-p.schools.nsw.gov.au,https://www.data.nsw.gov.au/data/dataset/nsw-education-nsw-public-schools-master-dataset,2026-02-19,-33.8066,151.2624
government,Balgowlah North Public School,North Balgowlah,2093,9949 4499,balgowlahn-p.school@det.nsw.edu.au,,https://balgowlahn-p.schools.nsw.gov.au,https://www.data.nsw.gov.au/data/dataset/nsw-education-nsw-public-schools-master-dataset,2026-02-19,-33.8066,151.2624
government,Balgownie Public School,Balgownie,2519,4284 4245,balgownie-p.school@det.nsw.edu.au,,https://balgownie-p.schools.nsw.gov.au,https://www.data.nsw.gov.au/data/dataset/nsw-education-nsw-public-schools-master-dataset,2026-02-19,-34.3887,150.8938
government,Ballimore Public School,Ballimore,2830,6886 5151,ballimore-p.school@det.nsw.edu.au,,https://ballimore-p.schools.nsw.gov.au,https://www.data.nsw.gov.au/data/dataset/nsw-education-nsw-public-schools-master-dataset,2026-02-19,-32.2667,148.6833
government,Ballina Coast High School,Ballina,2478,02 6681 0100,ballinacoast-h.school@det.nsw.edu.au,,https://ballina-h.schools.nsw.gov.au,https://www.data.nsw.gov.au/data/dataset/nsw-education-nsw-public-schools-master-dataset,2026-02-19,-28.8571,153.5874
government,Ballina Public School,Ballina,2478,6686 2205,ballina-p.school@det.nsw.edu.au,,https://ballina-p.schools.nsw.gov.au,https://www.data.nsw.gov.au/data/dataset/nsw-education-nsw-public-schools-master-dataset,2026-02-19,-28.8571,153.5874
government,Balmain Public School,Balmain,2041,9818 1177,balmain-p.school@det.nsw.edu.au,,https://balmain-p.schools.nsw.gov.au,https://www.data.nsw.gov.au/data/dataset/nsw-education-nsw-public-schools-master-dataset,2026-02-19,-33.8548,151.1833
government,Balranald Central School,Balranald,2715,03 5020 2222,balranald-c.school@det.nsw.edu.au,,https://balranald-c.schools.nsw.gov.au,https://www.data.nsw.gov.au/data/dataset/nsw-education-nsw-public-schools-master-dataset,2026-02-19,-33.5036,143.3112
government,Bangalow Public School,Bangalow,2479,6687 1434,bangalow-p.school@det.nsw.edu.au,,https://bangalow-p.schools.nsw.gov.au,https://www.data.nsw.gov.au/data/dataset/nsw-education-nsw-public-schools-master-dataset,2026-02-19,-28.7275,153.469
government,Bangor Public School,Bangor,2234,9543 2244,bangor-p.school@det.nsw.edu.au,,https://bangor-p.schools.nsw.gov.au,https://www.data.nsw.gov.au/data/dataset/nsw-education-nsw-public-schools-master-dataset,2026-02-19,-34.0341,151.0119
government,Banks Public School,St Clair,2759,9670 6506,banks-p.school@det.nsw.edu.au,,https://banks-p.schools.nsw.gov.au,https://www.data.nsw.gov.au/data/dataset/nsw-education-nsw-public-schools-master-dataset,2026-02-19,-33.813,150.7977
government,Banksia Road Public School,Greenacre,2190,9707 3423,banksiard-p.school@det.nsw.edu.au,,https://banksiard-p.schools.nsw.gov.au,https://www.data.nsw.gov.au/data/dataset/nsw-education-nsw-public-schools-master-dataset,2026-02-19,-33.9003,151.0556
government,Banksmeadow Public School,Botany,2019,9316 9608,banksmeado-p.school@det.nsw.edu.au,,https://banksmeado-p.schools.nsw.gov.au,https://www.data.nsw.gov.au/data/dataset/nsw-education-nsw-public-schools-master-dataset,2026-02-19,-33.9566,151.2096
government,Bankstown Girls High School,Bankstown,2200,9709 6788,bankstowng-h.school@det.nsw.edu.au,,https://bankstowng-h.schools.nsw.gov.au,https://www.data.nsw.gov.au/data/dataset/nsw-education-nsw-public-schools-master-dataset,2026-02-19,-33.9196,151.0308
government,Bankstown Hospital School,Bankstown,2200,9722 8063,banksthos-s.school@det.nsw.edu.au,,https://banksthos-s.schools.nsw.gov.au,https://www.data.nsw.gov.au/data/dataset/nsw-education-nsw-public-schools-master-dataset,2026-02-19,-33.9196,151.0308
government,Bankstown North Public School,Bankstown,2200,9709 5506,bankstownn-p.school@det.nsw.edu.au,,https://bankstownn-p.schools.nsw.gov.au,https://www.data.nsw.gov.au/data/dataset/nsw-education-nsw-public-schools-master-dataset,2026-02-19,-33.9196,151.0308
government,Bankstown Public School,Bankstown,2200,9796 2120,bankstown-p.school@det.nsw.edu.au,,https://bankstown-p.schools.nsw.gov.au,https://www.data.nsw.gov.au/data/dataset/nsw-education-nsw-public-schools-master-dataset,2026-02-19,-33.9196,151.0308
government,Bankstown Senior College,Bankstown,2200,9707 3288,bankstowns-h.school@det.nsw.edu.au,,https://bankstowns-h.schools.nsw.gov.au,https://www.data.nsw.gov.au/data/dataset/nsw-education-nsw-public-schools-master-dataset,2026-02-19,-33.9196,151.0308
government,Bankstown South Infants School,Bankstown,2200,9790 6176,bankstowsi-p.school@det.nsw.edu.au,,https://bankstowsi-p.schools.nsw.gov.au,https://www.data.nsw.gov.au/data/dataset/nsw-education-nsw-public-schools-master-dataset,2026-02-19,-33.9196,151.0308
government,Bankstown West Public School,Bankstown,2200,9790 6158,bankstownw-p.school@det.nsw.edu.au,,https://bankstownw-p.schools.nsw.gov.au,https://www.data.nsw.gov.au/data/dataset/nsw-education-nsw-public-schools-master-dataset,2026-02-19,-33.9196,151.0308
government,Banora Point High School,Banora Point,2486,07 5513 1960,banorapnt-h.school@det.nsw.edu.au,,https://banorapnt-h.schools.nsw.gov.au,https://www.data.nsw.gov.au/data/dataset/nsw-education-nsw-public-schools-master-dataset,2026-02-19,-28.2383,153.5008
government,Banora Point Public School,Banora Point,2486,07 5524 1444,banorapt-p.school@det.nsw.edu.au,,https://banorapt-p.schools.nsw.gov.au,https://www.data.nsw.gov.au/data/dataset/nsw-education-nsw-public-schools-master-dataset,2026-02-19,-28.2383,153.5008
government,Baradine Central School,Baradine,2396,6843 1805,baradine-c.school@det.nsw.edu.au,,https://baradine-c.schools.nsw.gov.au,https://www.data.nsw.gov.au/data/dataset/nsw-education-nsw-public-schools-master-dataset,2026-02-19,-31.1467,148.9934
government,Bardia Public School,Bardia,2565,9605 2459,bardia-p.school@det.nsw.edu.au,,https://bardia-p.schools.nsw.gov.au,https://www.data.nsw.gov.au/data/dataset/nsw-education-nsw-public-schools-master-dataset,2026-02-19,-34.0,150.8667
government,Bardwell Park Infants School,Bardwell Park,2207,9567 8754,bardwelpki-p.school@det.nsw.edu.au,,https://bardwelpki-p.schools.nsw.gov.au,https://www.data.nsw.gov.au/data/dataset/nsw-education-nsw-public-schools-master-dataset,2026-02-19,-33.9353,151.1257
government,Barellan Central School,Barellan,2665,6963 9202,barellan-c.school@det.nsw.edu.au,,https://barellan-c.schools.nsw.gov.au,https://www.data.nsw.gov.au/data/dataset/nsw-education-nsw-public-schools-master-dataset,2026-02-19,-34.3493,147.2218
government,Bargo Public School,Bargo,2574,4684 1396,bargo-p.school@det.nsw.edu.au,,https://bargo-p.schools.nsw.gov.au,https://www.data.nsw.gov.au/data/dataset/nsw-education-nsw-public-schools-master-dataset,2026-02-19,-34.293,150.5781
government,Barham High School,Barham,2732,03 5453 2322,barham-h.school@det.nsw.edu.au,,https://barham-h.schools.nsw.gov.au,https://www.data.nsw.gov.au/data/dataset/nsw-education-nsw-public-schools-master-dataset,2026-02-19,-35.5618,144.2684
government,Barham Public School,Barham,2732,03 5453 2133,barham-p.school@det.nsw.edu.au,,https://barham-p.schools.nsw.gov.au,https://www.data.nsw.gov.au/data/dataset/nsw-education-nsw-public-schools-master-dataset,2026-02-19,-35.5618,144.2684
independent,Barker College,Hornsby,2077,+61 2 8438 7999,,http://www.barker.nsw.edu.au/search-result/,http://www.barker.nsw.edu.au,https://www.isnsw.edu.au/about-independent-schools-nsw/independent-school-finder,2026-02-19,-33.7024,151.0993
independent,Barker College - Waitara Campus,Waitara,2077,02 9847 8399,,http://www.barker.nsw.edu.au/search-result/,http://www.barker.nsw.edu.au,https://www.isnsw.edu.au/about-independent-schools-nsw/independent-school-finder,2026-02-19,-33.7024,151.0993
government,Barkers Vale Public School,Wadeville,2474,6689 7202,barkersval-p.school@det.nsw.edu.au,,https://barkersval-p.schools.nsw.gov.au,https://www.data.nsw.gov.au/data/dataset/nsw-education-nsw-public-schools-master-dataset,2026-02-19,-28.5772,152.761
government,Barmedman Public School,Barmedman,2668,6976 2128,barmedman-p.school@det.nsw.edu.au,,https://barmedman-p.schools.nsw.gov.au,https://www.data.nsw.gov.au/data/dataset/nsw-education-nsw-public-schools-master-dataset,2026-02-19,-34.1449,147.3873
government,Barnier Public School,Quakers Hill,2763,9837 1600,barnier-p.school@det.nsw.edu.au,,https://barnier-p.schools.nsw.gov.au,https://www.data.nsw.gov.au/data/dataset/nsw-education-nsw-public-schools-master-dataset,2026-02-19,-33.7333,150.8833
government,Barnsley Public School,Barnsley,2278,4953 2976,barnsley-p.school@det.nsw.edu.au,,https://barnsley-p.schools.nsw.gov.au,https://www.data.nsw.gov.au/data/dataset/nsw-education-nsw-public-schools-master-dataset,2026-02-19,-32.9341,151.556
government,Barooga Public School,Barooga,3644,03 5873 4242,barooga-p.school@det.nsw.edu.au,,https://barooga-p.schools.nsw.gov.au,https://www.data.nsw.gov.au/data/dataset/nsw-education-nsw-public-schools-master-dataset,2026-02-19,-35.906,145.6958
government,Barraba Central School,Barraba,2347,6782 1104,barraba-c.school@det.nsw.edu.au,,https://barraba-c.schools.nsw.gov.au,https://www.data.nsw.gov.au/data/dataset/nsw-education-nsw-public-schools-master-dataset,2026-02-19,-30.2195,150.7882
government,Barrack Heights Public School,Barrack Heights,2528,4296 4222,barrackht-p.school@det.nsw.edu.au,,https://barrackht-p.schools.nsw.gov.au,https://www.data.nsw.gov.au/data/dataset/nsw-education-nsw-public-schools-master-dataset,2026-02-19,-34.5626,150.8709
government,Barramurra Public School,Oran Park,2570,02 4645 3800,barramurra-p.school@det.nsw.edu.au,,https://barramurra-p.schools.nsw.gov.au,https://www.data.nsw.gov.au/data/dataset/nsw-education-nsw-public-schools-master-dataset,2026-02-19,-34.0799,150.57
government,Barrenjoey High School,Avalon,2107,9918 8811,barrenjoey-h.school@det.nsw.edu.au,,https://barrenjoey-h.schools.nsw.gov.au,https://www.data.nsw.gov.au/data/dataset/nsw-education-nsw-public-schools-master-dataset,2026-02-19,-33.6342,151.3234
independent,Barrenjoey Montessori School,Avalon,2107,02 9973 1422,info@bms.nsw.edu.au,http://www.barrenjoeymontessori.com.au/contact,http://www.barrenjoeymontessori.com.au,https://www.isnsw.edu.au/about-independent-schools-nsw/independent-school-finder,2026-02-19,-33.6342,151.3234
government,Barrington Public School,Barrington,2422,6558 4258,barrington-p.school@det.nsw.edu.au,,https://barrington-p.schools.nsw.gov.au,https://www.data.nsw.gov.au/data/dataset/nsw-education-nsw-public-schools-master-dataset,2026-02-19,-32.0177,152.0269
government,Barwon Learning Centre,Moree,2400,6751 1573,barwonlc-s.school@det.nsw.edu.au,,https://barwonlc-s.schools.nsw.gov.au,https://www.data.nsw.gov.au/data/dataset/nsw-education-nsw-public-schools-master-dataset,2026-02-19,-29.4628,149.8416
government,Baryulgil Public School,Baryulgil,2460,6647 2124,baryulgil-p.school@det.nsw.edu.au,,https://baryulgil-p.schools.nsw.gov.au,https://www.data.nsw.gov.au/data/dataset/nsw-education-nsw-public-schools-master-dataset,2026-02-19,-28.4277,153.378
government,Bass High School,Bass Hill,2197,9726 3644,bass-h.school@det.nsw.edu.au,,https://bass-h.schools.nsw.gov.au,https://www.data.nsw.gov.au/data/dataset/nsw-education-nsw-public-schools-master-dataset,2026-02-19,-33.8986,150.9954
government,Bass Hill Public School,Bass Hill,2197,9644 3431,basshill-p.school@det.nsw.edu.au,,https://basshill-p.schools.nsw.gov.au,https://www.data.nsw.gov.au/data/dataset/nsw-education-nsw-public-schools-master-dataset,2026-02-19,-33.8986,150.9954
government,Bateau Bay Public School,Bateau Bay,2261,4332 8000,bateaubay-p.school@det.nsw.edu.au,,https://bateaubay-p.schools.nsw.gov.au,https://www.data.nsw.gov.au/data/dataset/nsw-education-nsw-public-schools-master-dataset,2026-02-19,-33.35,151.4333
government,Batemans Bay High School,Batehaven,2536,4478 3600,batemansba-h.school@det.nsw.edu.au,,https://batemansba-h.schools.nsw.gov.au,https://www.data.nsw.gov.au/data/dataset/nsw-education-nsw-public-schools-master-dataset,2026-02-19,-35.637,150.3036
government,Batemans Bay Public School,Surfside,2536,4472 4059,batemansba-p.school@det.nsw.edu.au,,https://batemansba-p.schools.nsw.gov.au,https://www.data.nsw.gov.au/data/dataset/nsw-education-nsw-public-schools-master-dataset,2026-02-19,-35.637,150.3036
government,Bates Drive School,Kareela,2232,9521 6049,batesdrive-s.school@det.nsw.edu.au,,https://batesdrive-s.schools.nsw.gov.au,https://www.data.nsw.gov.au/data/dataset/nsw-education-nsw-public-schools-master-dataset,2026-02-19,-34.0244,151.0386
government,Bathurst Public School,Bathurst,2795,6331 3923,bathurst-p.school@det.nsw.edu.au,,https://bathurst-p.schools.nsw.gov.au,https://www.data.nsw.gov.au/data/dataset/nsw-education-nsw-public-schools-master-dataset,2026-02-19,-33.4229,149.5328
government,Bathurst South Public School,Bathurst,2795,6331 1297,bathursts-p.school@det.nsw.edu.au,,https://bathursts-p.schools.nsw.gov.au,https://www.data.nsw.gov.au/data/dataset/nsw-education-nsw-public-schools-master-dataset,2026-02-19,-33.4229,149.5328
government,Bathurst West Public School,Bathurst,2795,6331 1142,bathurstw-p.school@det.nsw.edu.au,,https://bathurstw-p.schools.nsw.gov.au,https://www.data.nsw.gov.au/data/dataset/nsw-education-nsw-public-schools-master-dataset,2026-02-19,-33.4229,149.5328
government,Batlow Central School,Batlow,2730,6949 1208,batlow-c.school@det.nsw.edu.au,,https://batlow-c.schools.nsw.gov.au,https://www.data.nsw.gov.au/data/dataset/nsw-education-nsw-public-schools-master-dataset,2026-02-19,-35.5494,148.0982
government,Baulkham Hills High School,Baulkham Hills,2153,9639 8699,baulkham-h.school@det.nsw.edu.au,,https://baulkham-h.schools.nsw.gov.au,https://www.data.nsw.gov.au/data/dataset/nsw-education-nsw-public-schools-master-dataset,2026-02-19,-33.7588,150.9929
government,Baulkham Hills North Public School,Baulkham Hills,2153,9639 6936,baulkhamn-p.school@det.nsw.edu.au,,https://baulkhamn-p.schools.nsw.gov.au,https://www.data.nsw.gov.au/data/dataset/nsw-education-nsw-public-schools-master-dataset,2026-02-19,-33.7588,150.9929
government,Bayanami Public School,Parramatta,2150,02 9890 8169,bayanami-p.school@det.nsw.edu.au,,https://bayanami-p.schools.nsw.gov.au,https://www.data.nsw.gov.au/data/dataset/nsw-education-nsw-public-schools-master-dataset,2026-02-19,-33.8178,151.0035
government,Bayside High School,Kogarah,2217,02 8566 2200,bayside-h.school@det.nsw.edu.au,,https://bayside-h.schools.nsw.gov.au/,https://www.data.nsw.gov.au/data/dataset/nsw-education-nsw-public-schools-master-dataset,2026-02-19,-33.9795,151.1212
government,Beacon Hill Public School,Beacon Hill,2100,9451 6328,beaconhill-p.school@det.nsw.edu.au,,https://beaconhill-p.schools.nsw.gov.au,https://www.data.nsw.gov.au/data/dataset/nsw-education-nsw-public-schools-master-dataset,2026-02-19,-33.7666,151.2498
government,Beaumont Hills Public School,Beaumont Hills,2155,8824 6470,beaumonthi-p.school@det.nsw.edu.au,,https://beaumonthi-p.schools.nsw.gov.au,https://www.data.nsw.gov.au/data/dataset/nsw-education-nsw-public-schools-master-dataset,2026-02-19,-33.6999,150.9411
government,Beaumont Road Public School,Killara,2071,9498 3607,beaumontrd-p.school@det.nsw.edu.au,,https://beaumontrd-p.schools.nsw.gov.au,https://www.data.nsw.gov.au/data/dataset/nsw-education-nsw-public-schools-master-dataset,2026-02-19,-33.766,151.1621
government,Beauty Point Public School,Mosman,2088,9969 4260,beautypt-p.school@det.nsw.edu.au,,https://beautypt-p.schools.nsw.gov.au,https://www.data.nsw.gov.au/data/dataset/nsw-education-nsw-public-schools-master-dataset,2026-02-19,-33.839,151.2396
catholic,Bede Polding College,South Windsor,2756,(02) 4560 2900,bedepolding@parra.catholic.edu.au,,https://www.bedepoldingwindsor.catholic.edu.au,https://www.csnsw.catholic.edu.au/school-finder,2026-02-19,-33.6586,150.8108
government,Bedgerabong Public School,Bedgerabong,2871,6857 1185,bedgerebon-p.school@det.nsw.edu.au,,https://bedgerebon-p.schools.nsw.gov.au,https://www.data.nsw.gov.au/data/dataset/nsw-education-nsw-public-schools-master-dataset,2026-02-19,-33.2652,147.3846
government,Beechwood Public School,Wauchope,2446,6585 6136,beechwood-p.school@det.nsw.edu.au,,https://beechwood-p.schools.nsw.gov.au,https://www.data.nsw.gov.au/data/dataset/nsw-education-nsw-public-schools-master-dataset,2026-02-19,-31.3485,152.3346
government,Beecroft Public School,Beecroft,2119,9484 8844,beecroft-p.school@det.nsw.edu.au,,https://beecroft-p.schools.nsw.gov.au,https://www.data.nsw.gov.au/data/dataset/nsw-education-nsw-public-schools-master-dataset,2026-02-19,-33.7587,151.0723
government,Beelbangera Public School,Beelbangera,2680,6963 5368,beelbanger-p.school@det.nsw.edu.au,,https://beelbanger-p.schools.nsw.gov.au,https://www.data.nsw.gov.au/data/dataset/nsw-education-nsw-public-schools-master-dataset,2026-02-19,-34.2885,146.0509
government,Bega High School,Bega,2550,6492 9000,bega-h.school@det.nsw.edu.au,,https://bega-h.schools.nsw.gov.au,https://www.data.nsw.gov.au/data/dataset/nsw-education-nsw-public-schools-master-dataset,2026-02-19,-36.6969,149.8929
government,Bega Valley Public School,Bega,2550,6492 1280,bega-p.school@det.nsw.edu.au,,https://bega-p.schools.nsw.gov.au,https://www.data.nsw.gov.au/data/dataset/nsw-education-nsw-public-schools-master-dataset,2026-02-19,-36.6969,149.8929
government,Belair Public School,Adamstown,2289,4952 1735,belair-p.school@det.nsw.edu.au,,https://belair-p.schools.nsw.gov.au,https://www.data.nsw.gov.au/data/dataset/nsw-education-nsw-public-schools-master-dataset,2026-02-19,-32.9428,151.6958
government,Bella Vista Public School,Bella Vista,2153,02 8814 1386,bellavista-p.school@det.nsw.edu.au,,https://bellavista-p.schools.nsw.gov.au,https://www.data.nsw.gov.au/data/dataset/nsw-education-nsw-public-schools-master-dataset,2026-02-19,-33.7588,150.9929
government,Bellambi Public School,Bellambi,2518,4284 8666,bellambi-p.school@det.nsw.edu.au,,https://bellambi-p.schools.nsw.gov.au,https://www.data.nsw.gov.au/data/dataset/nsw-education-nsw-public-schools-master-dataset,2026-02-19,-34.3761,150.9108
government,Bellata Public School,Bellata,2397,6793 7514,bellata-p.school@det.nsw.edu.au,,https://bellata-p.schools.nsw.gov.au,https://www.data.nsw.gov.au/data/dataset/nsw-education-nsw-public-schools-master-dataset,2026-02-19,-29.9191,149.7889
government,Bellbird Public School,Bellbird,2325,4990 2331,bellbird-p.school@det.nsw.edu.au,,https://bellbird-p.schools.nsw.gov.au,https://www.data.nsw.gov.au/data/dataset/nsw-education-nsw-public-schools-master-dataset,2026-02-19,-32.8887,151.2832
government,Bellbrook Public School,Bellbrook,2440,6567 2049,bellbrook-p.school@det.nsw.edu.au,,https://bellbrook-p.schools.nsw.gov.au,https://www.data.nsw.gov.au/data/dataset/nsw-education-nsw-public-schools-master-dataset,2026-02-19,-31.1332,152.7514
government,Bellevue Hill Public School,Bellevue Hill,2023,9389 3928,bellevuehi-p.school@det.nsw.edu.au,,https://bellevuehi-p.schools.nsw.gov.au/,https://www.data.nsw.gov.au/data/dataset/nsw-education-nsw-public-schools-master-dataset,2026-02-19,-33.879,151.251
independent,Bellfield College,Rossmore,2557,+61 2 9606 2666,,,https://www.bellfield.nsw.edu.au,https://www.isnsw.edu.au/about-independent-schools-nsw/independent-school-finder,2026-02-19,-33.9405,150.7728
independent,"Bellfield College, Rooty Hill Campus",Rooty Hill,2766,+61 2 9606 2666,,,https://www.bellfield.nsw.edu.au,https://www.isnsw.edu.au/about-independent-schools-nsw/independent-school-finder,2026-02-19,-33.8063,150.8612
government,Bellingen High School,Bellingen,2454,6655 1315,bellingen-h.school@det.nsw.edu.au,,https://bellingen-h.schools.nsw.gov.au,https://www.data.nsw.gov.au/data/dataset/nsw-education-nsw-public-schools-master-dataset,2026-02-19,-30.4055,152.9515
government,Bellingen Public School,Bellingen,2454,6655 1147,bellingen-p.school@det.nsw.edu.au,,https://bellingen-p.schools.nsw.gov.au,https://www.data.nsw.gov.au/data/dataset/nsw-education-nsw-public-schools-master-dataset,2026-02-19,-30.4055,152.9515
government,Belltrees Public School,Belltrees,2337,6546 1148,belltrees-p.school@det.nsw.edu.au,,https://belltrees-p.schools.nsw.gov.au,https://www.data.nsw.gov.au/data/dataset/nsw-education-nsw-public-schools-master-dataset,2026-02-19,-31.9607,150.9914
independent,Belmont Christian College,Belmont North,2280,02 4922 8300,,,http://www.bcc.nsw.edu.au/web/,https://www.isnsw.edu.au/about-independent-schools-nsw/independent-school-finder,2026-02-19,-33.0493,151.6569
government,Belmont High School,Belmont,2280,4945 0600,belmont-h.school@det.nsw.edu.au,,https://belmont-h.schools.nsw.gov.au,https://www.data.nsw.gov.au/data/dataset/nsw-education-nsw-public-schools-master-dataset,2026-02-19,-33.0493,151.6569
government,Belmont North Public School,Belmont North,2280,4945 4861,belmontnth-p.school@det.nsw.edu.au,,https://belmontnth-p.schools.nsw.gov.au,https://www.data.nsw.gov.au/data/dataset/nsw-education-nsw-public-schools-master-dataset,2026-02-19,-33.0493,151.6569
government,Belmont Public School,Belmont,2280,4945 4858,belmont-p.school@det.nsw.edu.au,,https://belmont-p.schools.nsw.gov.au,https://www.data.nsw.gov.au/data/dataset/nsw-education-nsw-public-schools-master-dataset,2026-02-19,-33.0493,151.6569
government,Belmore Boys High School,Belmore,2192,9758 2800,belmoreboy-h.school@det.nsw.edu.au,,https://belmoreboy-h.schools.nsw.gov.au,https://www.data.nsw.gov.au/data/dataset/nsw-education-nsw-public-schools-master-dataset,2026-02-19,-33.919,151.0894
government,Belmore North Public School,Belmore,2192,9750 0652,belmorenth-p.school@det.nsw.edu.au,,https://belmorenth-p.schools.nsw.gov.au,https://www.data.nsw.gov.au/data/dataset/nsw-education-nsw-public-schools-master-dataset,2026-02-19,-33.919,151.0894
government,Belmore South Public School,Belmore,2192,9759 4388,belmoresth-p.school@det.nsw.edu.au,,https://belmoresth-p.schools.nsw.gov.au,https://www.data.nsw.gov.au/data/dataset/nsw-education-nsw-public-schools-master-dataset,2026-02-19,-33.919,151.0894
government,Belrose Public School,Belrose,2085,9451 6203,belrose-p.school@det.nsw.edu.au,,https://belrose-p.schools.nsw.gov.au,https://www.data.nsw.gov.au/data/dataset/nsw-education-nsw-public-schools-master-dataset,2026-02-19,-33.7413,151.2056
government,Bemboka Public School,Bemboka,2550,6493 0229,bemboka-p.school@det.nsw.edu.au,,https://bemboka-p.schools.nsw.gov.au,https://www.data.nsw.gov.au/data/dataset/nsw-education-nsw-public-schools-master-dataset,2026-02-19,-36.6969,149.8929
government,Ben Venue Public School,Armidale,2350,6772 4263,benvenue-p.school@det.nsw.edu.au,,https://benvenue-p.schools.nsw.gov.au,https://www.data.nsw.gov.au/data/dataset/nsw-education-nsw-public-schools-master-dataset,2026-02-19,-30.6152,151.7679
government,Bendemeer Public School,Bendemeer,2355,6769 6532,bendemeer-p.school@det.nsw.edu.au,,https://bendemeer-p.schools.nsw.gov.au,https://www.data.nsw.gov.au/data/dataset/nsw-education-nsw-public-schools-master-dataset,2026-02-19,-30.7384,151.0513
government,Bennett Road Public School,Colyton,2760,9623 2018,bennettrd-p.school@det.nsw.edu.au,,https://bennettrd-p.schools.nsw.gov.au,https://www.data.nsw.gov.au/data/dataset/nsw-education-nsw-public-schools-master-dataset,2026-02-19,-33.7328,150.791
government,Berala Public School,Berala,2141,9649 7146,berala-p.school@det.nsw.edu.au,,https://berala-p.schools.nsw.gov.au,https://www.data.nsw.gov.au/data/dataset/nsw-education-nsw-public-schools-master-dataset,2026-02-19,-33.8644,151.0397
government,Beresfield Public School,Beresfield,2322,4966 1146,beresfield-p.school@det.nsw.edu.au,,https://beresfield-p.schools.nsw.gov.au,https://www.data.nsw.gov.au/data/dataset/nsw-education-nsw-public-schools-master-dataset,2026-02-19,-32.7931,151.6769
government,Beresford Road Public School,Greystanes,2145,9896 2644,beresfdrd-p.school@det.nsw.edu.au,,https://beresfdrd-p.schools.nsw.gov.au,https://www.data.nsw.gov.au/data/dataset/nsw-education-nsw-public-schools-master-dataset,2026-02-19,-33.804,150.9554
government,Berinba Public School,Yass,2582,6226 2110,berinba-p.school@det.nsw.edu.au,,https://berinba-p.schools.nsw.gov.au,https://www.data.nsw.gov.au/data/dataset/nsw-education-nsw-public-schools-master-dataset,2026-02-19,-34.9167,148.8167
government,Berkeley Public School,Berkeley,2506,4271 1171,berkeley-p.school@det.nsw.edu.au,,https://berkeley-p.schools.nsw.gov.au,https://www.data.nsw.gov.au/data/dataset/nsw-education-nsw-public-schools-master-dataset,2026-02-19,-34.4833,150.85
government,Berkeley Vale Public School,Berkeley Vale,2261,4388 1796,berkeleyva-p.school@det.nsw.edu.au,,https://berkeleyva-p.schools.nsw.gov.au,https://www.data.nsw.gov.au/data/dataset/nsw-education-nsw-public-schools-master-dataset,2026-02-19,-33.35,151.4333
government,Berkeley West Public School,Berkeley,2506,4271 1478,berkeleyw-p.school@det.nsw.edu.au,,https://berkeleyw-p.schools.nsw.gov.au,https://www.data.nsw.gov.au/data/dataset/nsw-education-nsw-public-schools-master-dataset,2026-02-19,-34.4833,150.85
government,Bermagui Public School,Bermagui,2546,6493 4271,bermagui-p.school@det.nsw.edu.au,,https://bermagui-p.schools.nsw.gov.au,https://www.data.nsw.gov.au/data/dataset/nsw-education-nsw-public-schools-master-dataset,2026-02-19,-36.2036,150.1153
government,Berowra Public School,Berowra,2081,9456 1319,berowra-p.school@det.nsw.edu.au,,https://berowra-p.schools.nsw.gov.au,https://www.data.nsw.gov.au/data/dataset/nsw-education-nsw-public-schools-master-dataset,2026-02-19,-33.6208,151.1509
government,Berridale Public School,Berridale,2628,6456 3228,berridale-p.school@det.nsw.edu.au,,https://berridale-p.schools.nsw.gov.au,https://www.data.nsw.gov.au/data/dataset/nsw-education-nsw-public-schools-master-dataset,2026-02-19,-36.2322,148.6684
government,Berrigan Public School,Berrigan,2712,03 5885 2209,berrigan-p.school@det.nsw.edu.au,,https://berrigan-p.schools.nsw.gov.au,https://www.data.nsw.gov.au/data/dataset/nsw-education-nsw-public-schools-master-dataset,2026-02-19,-35.6588,145.8114
government,Berrima Public School,Berrima,2577,4877 1262,berrima-p.school@det.nsw.edu.au,,https://berrima-p.schools.nsw.gov.au,https://www.data.nsw.gov.au/data/dataset/nsw-education-nsw-public-schools-master-dataset,2026-02-19,-34.6504,150.6487
government,Berry Public School,Berry,2535,4464 1158,berry-p.school@det.nsw.edu.au,,https://berry-p.schools.nsw.gov.au,https://www.data.nsw.gov.au/data/dataset/nsw-education-nsw-public-schools-master-dataset,2026-02-19,-34.8167,150.6667
government,Bert Oldfield Public School,Seven Hills,2147,9622 2122,bertoldfie-p.school@det.nsw.edu.au,,https://bertoldfie-p.schools.nsw.gov.au,https://www.data.nsw.gov.au/data/dataset/nsw-education-nsw-public-schools-master-dataset,2026-02-19,-33.7833,150.9333
catholic,Bethany Catholic Primary School,Glenmore Park,2745,(02) 4723 3700,bethany@parra.catholic.edu.au,,https://www.bethanyglenmorepark.catholic.edu.au,https://www.csnsw.catholic.edu.au/school-finder,2026-02-19,-33.8658,150.6402
catholic,Bethany College,Hurstville,2220,(02) 8566 0711,info@bethanyhurstville.catholic.edu.au,,https://bethanyhurstville.syd.catholic.edu.au,https://www.csnsw.catholic.edu.au/school-finder,2026-02-19,-33.9799,151.0903
independent,Bethel Christian School,Mount Druitt,2770,02 9625 4949,admin@bethel.nsw.edu.au,https://www.bethel.nsw.edu.au/bcs-contact-us,https://www.bethel.nsw.edu.au,https://www.isnsw.edu.au/about-independent-schools-nsw/independent-school-finder,2026-02-19,-33.7441,150.8064
government,Beverley Park School,Campbelltown,2560,4625 1118,beverleypk-s.school@det.nsw.edu.au,,https://beverleypk-s.schools.nsw.gov.au,https://www.data.nsw.gov.au/data/dataset/nsw-education-nsw-public-schools-master-dataset,2026-02-19,-34.05,150.8333
government,Beverly Hills Girls High School,Beverly Hills,2209,9150 4280,beverlyhg-h.school@det.nsw.edu.au,,https://beverlyhg-h.schools.nsw.gov.au,https://www.data.nsw.gov.au/data/dataset/nsw-education-nsw-public-schools-master-dataset,2026-02-19,-33.9465,151.0692
government,Beverly Hills North Public School,Beverly Hills,2209,9759 3849,beverlyhn-p.school@det.nsw.edu.au,,https://beverlyhn-p.schools.nsw.gov.au,https://www.data.nsw.gov.au/data/dataset/nsw-education-nsw-public-schools-master-dataset,2026-02-19,-33.9465,151.0692
government,Beverly Hills Public School,Beverly Hills,2209,9580 5074,beverlyhi-p.school@det.nsw.edu.au,,https://beverlyhi-p.schools.nsw.gov.au,https://www.data.nsw.gov.au/data/dataset/nsw-education-nsw-public-schools-master-dataset,2026-02-19,-33.9465,151.0692
government,Bexhill Public School,Bexhill,2480,6628 4223,bexhill-p.school@det.nsw.edu.au,,https://bexhill-p.schools.nsw.gov.au,https://www.data.nsw.gov.au/data/dataset/nsw-education-nsw-public-schools-master-dataset,2026-02-19,-28.7493,153.2724
government,Bexley North Public School,Bexley,2207,9150 6171,bexleynth-p.school@det.nsw.edu.au,,https://bexleynth-p.schools.nsw.gov.au,https://www.data.nsw.gov.au/data/dataset/nsw-education-nsw-public-schools-master-dataset,2026-02-19,-33.9353,151.1257
government,Bexley Public School,Bexley,2207,9567 3501,bexley-p.school@det.nsw.edu.au,,https://bexley-p.schools.nsw.gov.au,https://www.data.nsw.gov.au/data/dataset/nsw-education-nsw-public-schools-master-dataset,2026-02-19,-33.9353,151.1257
independent,Bhaktivedanta Swami Gurukula School,Eungella,2484,02 6672 3788,,,https://www.krishnaschool.org,https://www.isnsw.edu.au/about-independent-schools-nsw/independent-school-finder,2026-02-19,-28.3702,153.3425
independent,Biala Special School,Ballina,2478,02 6686 3395,,,https://www.biala.org.au/,https://www.isnsw.edu.au/about-independent-schools-nsw/independent-school-finder,2026-02-19,-28.8571,153.5874
government,Biddabah Public School,Warners Bay,2282,4954 6058,biddabah-p.school@det.nsw.edu.au,,https://biddabah-p.schools.nsw.gov.au,https://www.data.nsw.gov.au/data/dataset/nsw-education-nsw-public-schools-master-dataset,2026-02-19,-32.9725,151.6527
government,Bidwill Public School,Bidwill,2770,9628 2444,bidwill-p.school@det.nsw.edu.au,,https://bidwill-p.schools.nsw.gov.au,https://www.data.nsw.gov.au/data/dataset/nsw-education-nsw-public-schools-master-dataset,2026-02-19,-33.7441,150.8064
government,Bigga Public School,Bigga,2583,4835 2236,bigga-p.school@det.nsw.edu.au,,https://bigga-p.schools.nsw.gov.au,https://www.data.nsw.gov.au/data/dataset/nsw-education-nsw-public-schools-master-dataset,2026-02-19,-34.2168,149.4755
government,Bilambil Public School,Bilambil,2486,07 5590 7210,bilambil-p.school@det.nsw.edu.au,,https://bilambil-p.schools.nsw.gov.au,https://www.data.nsw.gov.au/data/dataset/nsw-education-nsw-public-schools-master-dataset,2026-02-19,-28.2383,153.5008
government,Bilgola Plateau Public School,Bilgola Plateau,2107,9918 6524,bilgolapla-p.school@det.nsw.edu.au,,https://bilgolapla-p.schools.nsw.gov.au,https://www.data.nsw.gov.au/data/dataset/nsw-education-nsw-public-schools-master-dataset,2026-02-19,-33.6342,151.3234
government,Billabong High School,Culcairn,2660,6029 8377,billabong-h.school@det.nsw.edu.au,,https://billabong-h.schools.nsw.gov.au,https://www.data.nsw.gov.au/data/dataset/nsw-education-nsw-public-schools-master-dataset,2026-02-19,-35.6637,147.0787
government,Bilpin Public School,Bilpin,2758,4567 1154,bilpin-p.school@det.nsw.edu.au,,https://bilpin-p.schools.nsw.gov.au,https://www.data.nsw.gov.au/data/dataset/nsw-education-nsw-public-schools-master-dataset,2026-02-19,-33.4486,150.6295
government,Binalong Public School,Binalong,2584,6227 4381,binalong-p.school@det.nsw.edu.au,,https://binalong-p.schools.nsw.gov.au,https://www.data.nsw.gov.au/data/dataset/nsw-education-nsw-public-schools-master-dataset,2026-02-19,-34.6717,148.6348
government,Binda Public School,Binda,2583,4835 6052,binda-p.school@det.nsw.edu.au,,https://binda-p.schools.nsw.gov.au,https://www.data.nsw.gov.au/data/dataset/nsw-education-nsw-public-schools-master-dataset,2026-02-19,-34.2168,149.4755
government,Bingara Central School,Bingara,2404,6724 1606,bingara-c.school@det.nsw.edu.au,,https://bingara-c.schools.nsw.gov.au,https://www.data.nsw.gov.au/data/dataset/nsw-education-nsw-public-schools-master-dataset,2026-02-19,-29.9667,150.6
government,Binnaway Central School,Binnaway,2395,6844 1606,binnaway-c.school@det.nsw.edu.au,,https://binnaway-c.schools.nsw.gov.au,https://www.data.nsw.gov.au/data/dataset/nsw-education-nsw-public-schools-master-dataset,2026-02-19,-31.5523,149.3787
government,Binya Public School,Binya,2665,6968 3221,binya-p.school@det.nsw.edu.au,,https://binya-p.schools.nsw.gov.au,https://www.data.nsw.gov.au/data/dataset/nsw-education-nsw-public-schools-master-dataset,2026-02-19,-34.3493,147.2218
government,Biraban Public School,Toronto,2283,4959 1902,biraban-p.school@det.nsw.edu.au,,https://biraban-p.schools.nsw.gov.au,https://www.data.nsw.gov.au/data/dataset/nsw-education-nsw-public-schools-master-dataset,2026-02-19,-33.0423,151.6116
government,Birchgrove Public School,Balmain,2041,9810 2469,birchgrove-p.school@det.nsw.edu.au,,https://birchgrove-p.schools.nsw.gov.au,https://www.data.nsw.gov.au/data/dataset/nsw-education-nsw-public-schools-master-dataset,2026-02-19,-33.8548,151.1833
government,Birrong Boys High School,Birrong,2143,9644 5200,birrongboy-h.school@det.nsw.edu.au,,https://birrongboy-h.schools.nsw.gov.au,https://www.data.nsw.gov.au/data/dataset/nsw-education-nsw-public-schools-master-dataset,2026-02-19,-33.8931,151.0337
government,Birrong Girls High School,Birrong,2143,9644 5057,birronggir-h.school@det.nsw.edu.au,,https://birronggir-h.schools.nsw.gov.au,https://www.data.nsw.gov.au/data/dataset/nsw-education-nsw-public-schools-master-dataset,2026-02-19,-33.8931,151.0337
government,Birrong Public School,Birrong,2143,9644 3078,birrong-p.school@det.nsw.edu.au,,https://birrong-p.schools.nsw.gov.au,https://www.data.nsw.gov.au/data/dataset/nsw-education-nsw-public-schools-master-dataset,2026-02-19,-33.8931,151.0337
independent,Bishop Druitt College,Coffs Harbour,2450,+61 2 6651 5644,enrolments@bdc.nsw.edu.au,,http://www.bdc.nsw.edu.au,https://www.isnsw.edu.au/about-independent-schools-nsw/independent-school-finder,2026-02-19,-30.1574,153.0958
independent,Bishop Tyrrell Anglican College,Fletcher,2287,+61 2 4979 8484,,https://www.btac.nsw.edu.au,https://www.btac.nsw.edu.au,https://www.isnsw.edu.au/about-independent-schools-nsw/independent-school-finder,2026-02-19,-32.8937,151.6901
government,Black Hill Public School,Black Hill,2322,4930 3137,blackhill-p.school@det.nsw.edu.au,,https://blackhill-p.schools.nsw.gov.au,https://www.data.nsw.gov.au/data/dataset/nsw-education-nsw-public-schools-master-dataset,2026-02-19,-32.7931,151.6769
government,Black Mountain Public School,Black Mountain,2365,6775 0192,blackmtn-p.school@det.nsw.edu.au,,https://blackmtn-p.schools.nsw.gov.au,https://www.data.nsw.gov.au/data/dataset/nsw-education-nsw-public-schools-master-dataset,2026-02-19,-30.1333,151.8667
government,Blackalls Park Public School,Blackalls Park,2283,4959 1213,blackallpk-p.school@det.nsw.edu.au,,https://blackallpk-p.schools.nsw.gov.au,https://www.data.nsw.gov.au/data/dataset/nsw-education-nsw-public-schools-master-dataset,2026-02-19,-33.0423,151.6116
government,Blackett Public School,Blackett,2770,9628 7760,blackett-p.school@det.nsw.edu.au,,https://blackett-p.schools.nsw.gov.au,https://www.data.nsw.gov.au/data/dataset/nsw-education-nsw-public-schools-master-dataset,2026-02-19,-33.7441,150.8064
government,Blackheath Public School,Blackheath,2785,4787 8253,blackheath-p.school@det.nsw.edu.au,,https://blackheath-p.schools.nsw.gov.au,https://www.data.nsw.gov.au/data/dataset/nsw-education-nsw-public-schools-master-dataset,2026-02-19,-33.7333,150.25
government,Blacksmiths Public School,Blacksmiths,2281,4971 1519,blacksmith-p.school@det.nsw.edu.au,,https://blacksmith-p.schools.nsw.gov.au,https://www.data.nsw.gov.au/data/dataset/nsw-education-nsw-public-schools-master-dataset,2026-02-19,-33.0823,151.6455
government,Blacktown Boys High School,Blacktown,2148,9622 1558,blacktownb-h.school@det.nsw.edu.au,,https://blacktownb-h.schools.nsw.gov.au,https://www.data.nsw.gov.au/data/dataset/nsw-education-nsw-public-schools-master-dataset,2026-02-19,-33.7482,150.8927
government,Blacktown Girls High School,Blacktown,2148,9831 7577,blacktowng-h.school@det.nsw.edu.au,,https://blacktowng-h.schools.nsw.gov.au,https://www.data.nsw.gov.au/data/dataset/nsw-education-nsw-public-schools-master-dataset,2026-02-19,-33.7482,150.8927
government,Blacktown North Public School,Blacktown,2148,9622 2968,blacktownn-p.school@det.nsw.edu.au,,https://blacktownn-p.schools.nsw.gov.au,https://www.data.nsw.gov.au/data/dataset/nsw-education-nsw-public-schools-master-dataset,2026-02-19,-33.7482,150.8927
government,Blacktown South Public School,Blacktown,2148,9622 2449,blacktowns-p.school@det.nsw.edu.au,,https://blacktowns-p.schools.nsw.gov.au,https://www.data.nsw.gov.au/data/dataset/nsw-education-nsw-public-schools-master-dataset,2026-02-19,-33.7482,150.8927
government,Blacktown West Public School,Blacktown,2148,9622 2285,blacktownw-p.school@det.nsw.edu.au,,https://blacktownw-p.schools.nsw.gov.au,https://www.data.nsw.gov.au/data/dataset/nsw-education-nsw-public-schools-master-dataset,2026-02-19,-33.7482,150.8927
independent,Blacktown Youth College - Lawson Campus,Lawson,2783,+61 2 4759 1012,info@blacktownyouthcollege.nsw.edu.au,https://www.blacktownyouthcollege.nsw.edu.au/contact-us,http://www.blacktownyouthcollege.nsw.edu.au,https://www.isnsw.edu.au/about-independent-schools-nsw/independent-school-finder,2026-02-19,-33.7206,150.4297
independent,Blacktown Youth College Incorporated,Hebersham,2770,+61 2 9011 5335,info@blacktownyouthcollege.nsw.edu.au,https://www.blacktownyouthcollege.nsw.edu.au/contact-us,https://www.blacktownyouthcollege.nsw.edu.au,https://www.isnsw.edu.au/about-independent-schools-nsw/independent-school-finder,2026-02-19,-33.7441,150.8064
government,Blackville Public School,Blackville,2343,6747 4024,blackville-p.school@det.nsw.edu.au,,https://blackville-p.schools.nsw.gov.au,https://www.data.nsw.gov.au/data/dataset/nsw-education-nsw-public-schools-master-dataset,2026-02-19,-31.5667,150.55
government,Blackwell Public School,St Clair,2759,9670 5080,blackwell-p.school@det.nsw.edu.au,,https://blackwell-p.schools.nsw.gov.au,https://www.data.nsw.gov.au/data/dataset/nsw-education-nsw-public-schools-master-dataset,2026-02-19,-33.813,150.7977
government,Blairmount Public School,Blairmount,2559,4626 1795,blairmount-p.school@det.nsw.edu.au,,https://blairmount-p.schools.nsw.gov.au,https://www.data.nsw.gov.au/data/dataset/nsw-education-nsw-public-schools-master-dataset,2026-02-19,-34.0508,150.7924
government,Blakebrook Public School,Blakebrook,2480,6629 3263,blakebrook-p.school@det.nsw.edu.au,,https://blakebrook-p.schools.nsw.gov.au,https://www.data.nsw.gov.au/data/dataset/nsw-education-nsw-public-schools-master-dataset,2026-02-19,-28.7493,153.2724
government,Blakehurst High School,Blakehurst,2221,9546 3281,blakehurst-h.school@det.nsw.edu.au,,https://blakehurst-h.schools.nsw.gov.au,https://www.data.nsw.gov.au/data/dataset/nsw-education-nsw-public-schools-master-dataset,2026-02-19,-33.9867,151.1173
government,Blakehurst Public School,Blakehurst,2221,9546 1555,blakehurst-p.school@det.nsw.edu.au,,https://blakehurst-p.schools.nsw.gov.au,https://www.data.nsw.gov.au/data/dataset/nsw-education-nsw-public-schools-master-dataset,2026-02-19,-33.9867,151.1173
government,Blandford Public School,Blandford,2338,6546 6117,blandford-p.school@det.nsw.edu.au,,https://blandford-p.schools.nsw.gov.au,https://www.data.nsw.gov.au/data/dataset/nsw-education-nsw-public-schools-master-dataset,2026-02-19,-31.7641,150.8869
government,Blaxcell Street Public School,Granville,2142,9632 8162,blaxcellst-p.school@det.nsw.edu.au,,https://blaxcellst-p.schools.nsw.gov.au,https://www.data.nsw.gov.au/data/dataset/nsw-education-nsw-public-schools-master-dataset,2026-02-19,-33.8197,151.0264
government,Blaxland East Public School,Blaxland,2774,4739 1579,blaxlande-p.school@det.nsw.edu.au,,https://blaxlande-p.schools.nsw.gov.au,https://www.data.nsw.gov.au/data/dataset/nsw-education-nsw-public-schools-master-dataset,2026-02-19,-33.7307,150.6353
government,Blaxland High School,Blaxland,2774,4739 4655,blaxland-h.school@det.nsw.edu.au,,https://blaxland-h.schools.nsw.gov.au,https://www.data.nsw.gov.au/data/dataset/nsw-education-nsw-public-schools-master-dataset,2026-02-19,-33.7307,150.6353
government,Blaxland Public School,Blaxland,2774,4739 2817,blaxland-p.school@det.nsw.edu.au,,https://blaxland-p.schools.nsw.gov.au,https://www.data.nsw.gov.au/data/dataset/nsw-education-nsw-public-schools-master-dataset,2026-02-19,-33.7307,150.6353
government,Blayney High School,Blayney,2799,6368 2100,blayney-h.school@det.nsw.edu.au,,https://blayney-h.schools.nsw.gov.au,https://www.data.nsw.gov.au/data/dataset/nsw-education-nsw-public-schools-master-dataset,2026-02-19,-33.5323,149.2537
government,Blayney Public School,Blayney,2799,6368 2154,blayney-p.school@det.nsw.edu.au,,https://blayney-p.schools.nsw.gov.au,https://www.data.nsw.gov.au/data/dataset/nsw-education-nsw-public-schools-master-dataset,2026-02-19,-33.5323,149.2537
catholic,Blessed Sacrament Catholic Primary School,Clifton Gardens,2088,(02) 9969 7758,info@bscliftongardens.catholic.edu.au,,https://bscliftongardens.syd.catholic.edu.au,https://www.csnsw.catholic.edu.au/school-finder,2026-02-19,-33.839,151.2396
government,Bletchington Public School,Orange,2800,6362 3422,bletchingt-p.school@det.nsw.edu.au,,https://bletchingt-p.schools.nsw.gov.au,https://www.data.nsw.gov.au/data/dataset/nsw-education-nsw-public-schools-master-dataset,2026-02-19,-33.2547,149.156
government,Bligh Park Public School,Bligh Park,2756,02 4572 7067,blighpark-p.school@det.nsw.edu.au,,https://blighpark-p.schools.nsw.gov.au,https://www.data.nsw.gov.au/data/dataset/nsw-education-nsw-public-schools-master-dataset,2026-02-19,-33.6586,150.8108
government,Blighty Public School,Blighty,2713,03 5882 6238,blighty-p.school@det.nsw.edu.au,,https://blighty-p.schools.nsw.gov.au,https://www.data.nsw.gov.au/data/dataset/nsw-education-nsw-public-schools-master-dataset,2026-02-19,-35.6216,145.4285
independent,Blue Gum Community School (NSW),Hornsby,2077,02 9138 2019,,https://bluegum.nsw.edu.au/contact,https://bluegum.nsw.edu.au/,https://www.isnsw.edu.au/about-independent-schools-nsw/independent-school-finder,2026-02-19,-33.7024,151.0993
government,Blue Haven Public School,Blue Haven,2262,4399 0167,bluehaven-p.school@det.nsw.edu.au,,https://bluehaven-p.schools.nsw.gov.au,https://www.data.nsw.gov.au/data/dataset/nsw-education-nsw-public-schools-master-dataset,2026-02-19,-33.2069,151.5436
independent,Blue Hills College,Goonellabah,2480,+61 2 6625 6000,,,http://www.bluehills.nsw.edu.au,https://www.isnsw.edu.au/about-independent-schools-nsw/independent-school-finder,2026-02-19,-28.7493,153.2724
independent,Blue Mountains Grammar Preparatory School,Valley Heights,2777,02 4751 1266,,https://www.bmgs.nsw.edu.au/contact-us/,https://www.bmgs.nsw.edu.au,https://www.isnsw.edu.au/about-independent-schools-nsw/independent-school-finder,2026-02-19,-33.6985,150.6346
independent,Blue Mountains Grammar School,Wentworth Falls,2782,02 4757 9000,,https://www.bmgs.nsw.edu.au/contact-us/,https://www.bmgs.nsw.edu.au,https://www.isnsw.edu.au/about-independent-schools-nsw/independent-school-finder,2026-02-19,-33.7103,150.3753
independent,Blue Mountains Steiner School,Hazelbrook,2779,+61 2 4758 6044,,https://www.bluemountainssteiner.nsw.edu.au/,https://www.bluemountainssteiner.nsw.edu.au,https://www.isnsw.edu.au/about-independent-schools-nsw/independent-school-finder,2026-02-19,-33.7245,150.4584
government,Boambee Public School,Boambee,2450,6653 1107,boambee-p.school@det.nsw.edu.au,,https://boambee-p.schools.nsw.gov.au,https://www.data.nsw.gov.au/data/dataset/nsw-education-nsw-public-schools-master-dataset,2026-02-19,-30.1574,153.0958
government,Bobin Public School,Bobin,2429,6550 5147,bobin-p.school@det.nsw.edu.au,,https://bobin-p.schools.nsw.gov.au,https://www.data.nsw.gov.au/data/dataset/nsw-education-nsw-public-schools-master-dataset,2026-02-19,-31.7814,152.0001
government,Bobs Farm Public School,Bobs Farm,2316,4982 1179,bobsfarm-p.school@det.nsw.edu.au,,https://bobsfarm-p.schools.nsw.gov.au,https://www.data.nsw.gov.au/data/dataset/nsw-education-nsw-public-schools-master-dataset,2026-02-19,-32.7858,152.0896
government,Bodalla Public School,Bodalla,2545,4473 5257,bodalla-p.school@det.nsw.edu.au,,https://bodalla-p.schools.nsw.gov.au,https://www.data.nsw.gov.au/data/dataset/nsw-education-nsw-public-schools-master-dataset,2026-02-19,-36.2891,148.7385
government,Bogan Gate Public School,Bogan Gate,2876,6864 1124,bogangate-p.school@det.nsw.edu.au,,https://bogangate-p.schools.nsw.gov.au,https://www.data.nsw.gov.au/data/dataset/nsw-education-nsw-public-schools-master-dataset,2026-02-19,-33.1231,147.9104
government,Bogangar Public School,Bogangar,2488,6676 2755,bogangar-p.school@det.nsw.edu.au,,https://bogangar-p.schools.nsw.gov.au,https://www.data.nsw.gov.au/data/dataset/nsw-education-nsw-public-schools-master-dataset,2026-02-19,-28.3294,153.5686
government,Boggabilla Central School,Boggabilla,2409,07 4676 2104,boggabilla-c.school@det.nsw.edu.au,,https://boggabilla-c.schools.nsw.gov.au,https://www.data.nsw.gov.au/data/dataset/nsw-education-nsw-public-schools-master-dataset,2026-02-19,-28.736,150.6239
government,Boggabri Public School,Boggabri,2382,6743 4526,boggabri-p.school@det.nsw.edu.au,,https://boggabri-p.schools.nsw.gov.au,https://www.data.nsw.gov.au/data/dataset/nsw-education-nsw-public-schools-master-dataset,2026-02-19,-30.7095,150.0412
government,Bolwarra Public School,Bolwarra,2320,4930 1296,bolwarra-p.school@det.nsw.edu.au,,https://bolwarra-p.schools.nsw.gov.au,https://www.data.nsw.gov.au/data/dataset/nsw-education-nsw-public-schools-master-dataset,2026-02-19,-32.7288,151.5345
government,Bomaderry High School,Bomaderry,2541,4421 0699,bomaderry-h.school@det.nsw.edu.au,,https://bomaderry-h.schools.nsw.gov.au/,https://www.data.nsw.gov.au/data/dataset/nsw-education-nsw-public-schools-master-dataset,2026-02-19,-34.8842,150.6004
government,Bomaderry Public School,Bomaderry,2541,4421 6577,bomaderry-p.school@det.nsw.edu.au,,https://bomaderry-p.schools.nsw.gov.au,https://www.data.nsw.gov.au/data/dataset/nsw-education-nsw-public-schools-master-dataset,2026-02-19,-34.8842,150.6004
government,Bombala High School,Bombala,2632,6458 3358,bombala-h.school@det.nsw.edu.au,,https://bombala-h.schools.nsw.gov.au,https://www.data.nsw.gov.au/data/dataset/nsw-education-nsw-public-schools-master-dataset,2026-02-19,-36.9309,149.2131
government,Bombala Public School,Bombala,2632,6458 3423,bombala-p.school@det.nsw.edu.au,,https://bombala-p.schools.nsw.gov.au,https://www.data.nsw.gov.au/data/dataset/nsw-education-nsw-public-schools-master-dataset,2026-02-19,-36.9309,149.2131
government,Bonalbo Central School,Bonalbo,2469,6665 1205,bonalbo-c.school@det.nsw.edu.au,,https://bonalbo-c.schools.nsw.gov.au,https://www.data.nsw.gov.au/data/dataset/nsw-education-nsw-public-schools-master-dataset,2026-02-19,-28.976,152.7656
government,Bondi Beach Public School,Bondi Beach,2026,9130 2116,bondibeach-p.school@det.nsw.edu.au,,https://bondibeach-p.schools.nsw.gov.au,https://www.data.nsw.gov.au/data/dataset/nsw-education-nsw-public-schools-master-dataset,2026-02-19,-33.8879,151.2808
government,Bondi Public School,Bondi,2026,9130 6998,bondi-p.school@det.nsw.edu.au,,https://bondi-p.schools.nsw.gov.au,https://www.data.nsw.gov.au/data/dataset/nsw-education-nsw-public-schools-master-dataset,2026-02-19,-33.8879,151.2808
government,Bongongo Public School,Adjungbilly,2727,6946 6214,bongongo-p.school@det.nsw.edu.au,,https://bongongo-p.schools.nsw.gov.au,https://www.data.nsw.gov.au/data/dataset/nsw-education-nsw-public-schools-master-dataset,2026-02-19,-35.0016,148.277
government,Bonnells Bay Public School,Bonnells Bay,2264,4973 1149,bonnellbay-p.school@det.nsw.edu.au,,https://bonnellbay-p.schools.nsw.gov.au,https://www.data.nsw.gov.au/data/dataset/nsw-education-nsw-public-schools-master-dataset,2026-02-19,-33.108,151.4871
government,Bonnet Bay Public School,Bonnet Bay,2226,9528 4111,bonnetbay-p.school@det.nsw.edu.au,,https://bonnetbay-p.schools.nsw.gov.au,https://www.data.nsw.gov.au/data/dataset/nsw-education-nsw-public-schools-master-dataset,2026-02-19,-33.9994,151.0639
government,Bonnyrigg Heights Public School,Bonnyrigg Heights,2177,9823 7000,bonnyriggh-p.school@det.nsw.edu.au,,https://bonnyriggh-p.schools.nsw.gov.au,https://www.data.nsw.gov.au/data/dataset/nsw-education-nsw-public-schools-master-dataset,2026-02-19,-33.8936,150.8891
government,Bonnyrigg High School,Bonnyrigg,2177,9823 1184,bonnyrigg-h.school@det.nsw.edu.au,,https://bonnyrigg-h.schools.nsw.gov.au,https://www.data.nsw.gov.au/data/dataset/nsw-education-nsw-public-schools-master-dataset,2026-02-19,-33.8936,150.8891
government,Bonnyrigg Public School,Bonnyrigg,2177,9610 1511,bonnyrigg-p.school@det.nsw.edu.au,,https://bonnyrigg-p.schools.nsw.gov.au,https://www.data.nsw.gov.au/data/dataset/nsw-education-nsw-public-schools-master-dataset,2026-02-19,-33.8936,150.8891
government,Bonshaw Public School,Bonshaw,2361,07 4653 5147,bonshaw-p.school@det.nsw.edu.au,,https://bonshaw-p.schools.nsw.gov.au,https://www.data.nsw.gov.au/data/dataset/nsw-education-nsw-public-schools-master-dataset,2026-02-19,-29.0479,151.2757
government,Bonville Public School,Bonville,2450,6653 4250,bonville-p.school@det.nsw.edu.au,,https://bonville-p.schools.nsw.gov.au,https://www.data.nsw.gov.au/data/dataset/nsw-education-nsw-public-schools-master-dataset,2026-02-19,-30.1574,153.0958
government,Boolaroo Public School,Boolaroo,2284,4958 1479,boolaroo-p.school@det.nsw.edu.au,,https://boolaroo-p.schools.nsw.gov.au,https://www.data.nsw.gov.au/data/dataset/nsw-education-nsw-public-schools-master-dataset,2026-02-19,-32.9806,151.6184
government,Boomi Public School,Boomi,2405,6753 5221,boomi-p.school@det.nsw.edu.au,,https://boomi-p.schools.nsw.gov.au,https://www.data.nsw.gov.au/data/dataset/nsw-education-nsw-public-schools-master-dataset,2026-02-19,-29.0759,149.6377
government,Booragul Public School,Booragul,2284,4958 2013,booragul-p.school@det.nsw.edu.au,,https://booragul-p.schools.nsw.gov.au,https://www.data.nsw.gov.au/data/dataset/nsw-education-nsw-public-schools-master-dataset,2026-02-19,-32.9806,151.6184
government,Booral Public School,Booral,2425,4994 9266,booral-p.school@det.nsw.edu.au,,https://booral-p.schools.nsw.gov.au,https://www.data.nsw.gov.au/data/dataset/nsw-education-nsw-public-schools-master-dataset,2026-02-19,-32.4777,152.0651
government,Boorowa Central School,Boorowa,2586,6385 3009,boorowa-c.school@det.nsw.edu.au,,https://boorowa-c.schools.nsw.gov.au,https://www.data.nsw.gov.au/data/dataset/nsw-education-nsw-public-schools-master-dataset,2026-02-19,-34.4366,148.7163
independent,Border Christian College,Thurgoona,2640,+61 2 6049 3200,,,https://www.alburybcc.nsw.edu.au,https://www.isnsw.edu.au/about-independent-schools-nsw/independent-school-finder,2026-02-19,-36.0865,146.9091
government,Boree Creek Public School,Boree Creek,2652,6927 1478,boreecreek-p.school@det.nsw.edu.au,,https://boreecreek-p.schools.nsw.gov.au,https://www.data.nsw.gov.au/data/dataset/nsw-education-nsw-public-schools-master-dataset,2026-02-19,-35.3833,147.25
government,Borenore Public School,Borenore,2800,6365 2262,borenore-p.school@det.nsw.edu.au,,https://borenore-p.schools.nsw.gov.au,https://www.data.nsw.gov.au/data/dataset/nsw-education-nsw-public-schools-master-dataset,2026-02-19,-33.2547,149.156
government,Boronia Park Public School,Hunters Hill,2110,9817 2778,boroniapk-p.school@det.nsw.edu.au,,https://boroniapk-p.schools.nsw.gov.au,https://www.data.nsw.gov.au/data/dataset/nsw-education-nsw-public-schools-master-dataset,2026-02-19,-33.8343,151.1459
government,Bossley Park High School,Bossley Park,2176,9823 1033,bossleypk-h.school@det.nsw.edu.au,,https://bossleypk-h.schools.nsw.gov.au,https://www.data.nsw.gov.au/data/dataset/nsw-education-nsw-public-schools-master-dataset,2026-02-19,-33.8701,150.8612
government,Bossley Park Public School,Bossley Park,2176,9610 6286,bossleypk-p.school@det.nsw.edu.au,,https://bossleypk-p.schools.nsw.gov.au,https://www.data.nsw.gov.au/data/dataset/nsw-education-nsw-public-schools-master-dataset,2026-02-19,-33.8701,150.8612
government,Botany Public School,Botany,2019,9316 8889,botany-p.school@det.nsw.edu.au,,https://botany-p.schools.nsw.gov.au,https://www.data.nsw.gov.au/data/dataset/nsw-education-nsw-public-schools-master-dataset,2026-02-19,-33.9566,151.2096
government,Bourke High School,Bourke,2840,02 6872 2522,bourke-h.school@det.nsw.edu.au,,https://bourke-h.schools.nsw.gov.au,https://www.data.nsw.gov.au/data/dataset/nsw-education-nsw-public-schools-master-dataset,2026-02-19,-30.6087,145.7211
government,Bourke Public School,Bourke,2840,6872 2051,bourke-p.school@det.nsw.edu.au,,https://bourke-p.schools.nsw.gov.au,https://www.data.nsw.gov.au/data/dataset/nsw-education-nsw-public-schools-master-dataset,2026-02-19,-30.6087,145.7211
government,Bourke Street Public School,Surry Hills,2010,9319 7310,bourkest-p.school@det.nsw.edu.au,,https://bourkest-p.schools.nsw.gov.au,https://www.data.nsw.gov.au/data/dataset/nsw-education-nsw-public-schools-master-dataset,2026-02-19,-33.8794,151.2193
government,Bourke-Walgett School of Distance Education,Bourke,2840,6828 1374,bourkewalg-d.school@det.nsw.edu.au,,https://bourkewalg-d.schools.nsw.gov.au,https://www.data.nsw.gov.au/data/dataset/nsw-education-nsw-public-schools-master-dataset,2026-02-19,-30.6087,145.7211
government,Bournda Environmental Education Centre,Kalaru,2550,6494 5009,bournda-e.school@det.nsw.edu.au,,https://bourndaeec.nsw.edu.au/,https://www.data.nsw.gov.au/data/dataset/nsw-education-nsw-public-schools-master-dataset,2026-02-19,-36.6969,149.8929
