sector,school_name,suburb,postcode,phone,public_email,contact_form_url,website_url,source_directory_url,last_verified_date,lat,lon,website_checked
government,Darwin High School,The Gardens,0820,(08) 899 91222,darwin.high@education.nt.gov.au,https://darwinhigh.nt.edu.au/newsletter-success/,http://www.darwinhigh.nt.edu.au,https://acaraweb.azurewebsites.net/contact-us/acara-data-access,2026-02-21,-12.43893,130.83398,true
government,Northern Territory School of Distance Education,The Gardens,0820,(08) 892 22222,ntsde.it@education.nt.gov.au,https://ntsde.nt.edu.au/contact/,http://www.ntsde.nt.edu.au/,https://acaraweb.azurewebsites.net/contact-us/acara-data-access,2026-02-21,-12.4396483748962,130.833994695587,true
government,Centralian Senior College,Alice Springs,0870,(08) 895 85000,admin.centraliansc@ntschools.net,http://centralianseniorcollege.com.au/contact-us,http://centralianseniorcollege.com.au/,https://acaraweb.azurewebsites.net/contact-us/acara-data-access,2026-02-21,-23.6979,133.8953,true
government,Woolaning School,Litchfield Park,0822,(08) 8978 2334,admin.woolasch@education.nt.gov.au,,https://n/a,https://acaraweb.azurewebsites.net/contact-us/acara-data-access,2026-02-21,-13.098819,130.654431,true
independent,Araluen Christian College,Alice Springs,0870,(08) 8955 3300,admin.acc@ntschools.net,http://acc.nt.edu.au/contact-us/,http://www.acc.nt.edu.au/,https://acaraweb.azurewebsites.net/contact-us/acara-data-access,2026-02-21,-23.70771,133.85232,true
catholic,Holy Family Catholic Primary School,Karama,0812,(08) 89276188,admin.holyfamily@nt.catholic.edu.au,http://www.holyfamilynt.catholic.edu.au/apps/search,http://www.holyfamilynt.catholic.edu.au,https://acaraweb.azurewebsites.net/contact-us/acara-data-access,2026-02-21,-12.39367,130.91166,true
catholic,Holy Spirit Catholic Primary School,Wanguri,0810,(08) 8927 3411,col.hs@nt.catholic.edu.au,http://www.holyspiritnt.catholic.edu.au/search-results,http://www.holyspiritnt.catholic.edu.au,https://acaraweb.azurewebsites.net/contact-us/acara-data-access,2026-02-21,-12.373488,130.88543,true
catholic,O'Loughlin Catholic College,Karama,0812,(08) 8945 1277,secretary.oloughlin@nt.catholic.edu.au,http://www.oloughlin.nt.edu.au/search/,http://www.oloughlin.nt.edu.au/,https://acaraweb.azurewebsites.net/contact-us/acara-data-access,2026-02-21,-12.39337,130.91045,true
catholic,Our Lady of the Sacred Heart Catholic College,Alice Springs,0870,(08) 8950 6400,admin.olshalice@nt.catholic.edu.au,http://www.olshalice.catholic.edu.au/search/,http://www.olshalice.catholic.edu.au,https://acaraweb.azurewebsites.net/contact-us/acara-data-access,2026-02-21,-23.707543,133.876955,true
catholic,Sacred Heart Catholic Primary School,Woodroffe,0830,(08) 8924 8700,admin.shps@nt.catholic.edu.au,https://shpsnt.catholic.edu.au/contact-us/,https://www.shpsnt.catholic.edu.au/,https://acaraweb.azurewebsites.net/contact-us/acara-data-access,2026-02-21,-12.49588,130.97937,true
catholic,St Francis of Assisi Catholic Primary School,Humpty Doo,0836,(08) 8988 1212,admin.sfas@nt.catholic.edu.au,https://www.sfasnt.catholic.edu.au/wp-admin/admin-post.php?action=mailpoet_subscription_form,http://www.sfasnt.catholic.edu.au,https://acaraweb.azurewebsites.net/contact-us/acara-data-access,2026-02-21,-12.581199,131.099073,true
catholic,St John's Catholic College,The Gardens,0820,(08) 8982 2222,admin.stjohns@nt.catholic.edu.au,http://www.stjohnsnt.catholic.edu.au/search/,http://www.stjohnsnt.catholic.edu.au,https://acaraweb.azurewebsites.net/contact-us/acara-data-access,2026-02-21,-12.440794,130.837954,true
catholic,St Joseph's Catholic College,Katherine,0850,(08) 89723555,admin.stjosephs@nt.catholic.edu.au,https://www.stjoeys.college/site-search,https://www.stjoeys.college/,https://acaraweb.azurewebsites.net/contact-us/acara-data-access,2026-02-21,-14.46194,132.27593,true
catholic,St Mary's Catholic Primary School,Darwin,0800,(08) 8981 9796,admin.stmarys@nt.catholic.edu.au,http://www.stmarysnt.catholic.edu.au/outside-school-hours-care/oshc-contact-and-service-details/,http://www.stmarysnt.catholic.edu.au/,https://acaraweb.azurewebsites.net/contact-us/acara-data-access,2026-02-21,-12.45935,130.83883,true
catholic,St Paul's Catholic Primary School,Rapid Creek,0810,(08) 8985 1911,admin.stpauls@nt.catholic.edu.au,http://www.stpaulsnt.catholic.edu.au/site-search,http://www.stpaulsnt.catholic.edu.au/,https://acaraweb.azurewebsites.net/contact-us/acara-data-access,2026-02-21,-12.38695,130.85821,true
government,Casuarina Senior College,Moil,0810,(08) 898 37300,csc.admin@education.nt.gov.au,http://www.casuarinaseniorcollege.com.au/contact-us,http://www.casuarinaseniorcollege.com.au,https://acaraweb.azurewebsites.net/contact-us/acara-data-access,2026-02-21,-12.3836,130.879,true
government,Kintore Street School,Katherine,0850,(08) 8973 3888,kintore.admin@education.nt.gov.au,https://kintorestreetschool.nt.edu.au/,https://kintorestreetschool.nt.edu.au/,https://acaraweb.azurewebsites.net/contact-us/acara-data-access,2026-02-21,-14.46361,132.25918,true
independent,NT Christian College,Marrara,0812,(08) 8920 2000,admin.ntcc@ntschools.net,https://www.ntcc.nt.edu.au/contact-us/,https://www.ntcc.nt.edu.au,https://acaraweb.azurewebsites.net/contact-us/acara-data-access,2026-02-21,-12.40795029,130.917266,true
government,Arlparra School,Utopia,0872,(08) 8956 9178,info@australianschoolsdirectory.com.au,https://www.australianschoolsdirectory.com.au/contact.php,https://www.australianschoolsdirectory.com.au/3475/arlparra-school-alice-springs,https://acaraweb.azurewebsites.net/contact-us/acara-data-access,2026-02-21,-22.087628,134.775047,true
independent,Mapuru Yirralka College,Mapuru,0822,(08) 8970 4996,principal@yirralka.nt.ed.au,,http://www.arnhemweavers.com.au,https://acaraweb.azurewebsites.net/contact-us/acara-data-access,2026-02-21,-12.252298,135.437467,true
independent,Good Shepherd Lutheran College,Howard Springs,0835,08 8983 0300,admin@goodshepherd.nt.edu.au,https://www.goodshepherd.nt.edu.au/contact/outside-school-hours-care,https://www.goodshepherd.nt.edu.au/,https://acaraweb.azurewebsites.net/contact-us/acara-data-access,2026-02-21,-12.495852,131.024977,true
government,Dripstone Secondary College,Tiwi,0810,(08) 898 37777,dripstone.secondary@education.nt.gov.au,,http://www.dripstonemiddle.nt.edu.au,https://acaraweb.azurewebsites.net/contact-us/acara-data-access,2026-02-21,,,true
government,Katherine High School,Katherine East,0850,(08) 897 38200,admin.kathehs@ntschools.net,https://katherinehighschool.us18.list-manage.com/subscribe/post?u=b603acc98c7918a29903b32dc&id=460f45a120,https://www.katherinehighschool.com.au/,https://acaraweb.azurewebsites.net/contact-us/acara-data-access,2026-02-21,-14.46347,132.28306,true
government,Nhulunbuy High School,Nhulunbuy,0880,(08) 898 70844,nhulunbuy.high@education.nt.gov.au,,https://n/a,https://acaraweb.azurewebsites.net/contact-us/acara-data-access,2026-02-21,-12.18676,136.78298,true
government,Nightcliff High School,Nightcliff,0810,(08) 898 37677,admin.nightms@ntschools.net,http://www.nightcliffmiddle.nt.edu.au/,http://www.nightcliffmiddle.nt.edu.au,https://acaraweb.azurewebsites.net/contact-us/acara-data-access,2026-02-21,,,true
government,Sanderson High School,Malak,0812,(08) 7923 0500,shs@education.nt.gov.au,,https://sandersonmiddle.nt.edu.au/,https://acaraweb.azurewebsites.net/contact-us/acara-data-access,2026-02-21,,,true
government,Taminmin College,Humpty Doo,0836,(08) 898 37000,admin.taminmin@ntschools.net,https://taminmin.nt.edu.au/,http://www.taminmin.nt.edu.au/,https://acaraweb.azurewebsites.net/contact-us/acara-data-access,2026-02-21,-12.58037,131.10089,true
government,Tennant Creek High School,Tennant Creek,0860,(08) 8962 2102,admin.tchs@education.nt.gov.au,,http://,https://acaraweb.azurewebsites.net/contact-us/acara-data-access,2026-02-21,-19.644142,134.196942,true
government,Alice Springs School Of The Air,Alice Springs,0870,(08) 8951 6800,assoa@assoa.nt.edu.au,https://www.assoa.nt.edu.au/contact/,http://www.assoa.nt.edu.au/,https://acaraweb.azurewebsites.net/contact-us/acara-data-access,2026-02-21,-23.67805,133.86618,true
government,Katherine School Of The Air,Katherine,0850,(08) 896 51555,kath.soa@education.nt.gov.au,https://www.ksa.nt.edu.au/contact-us,https://www.ksa.nt.edu.au/,https://acaraweb.azurewebsites.net/contact-us/acara-data-access,2026-02-21,-14.4502,132.26948,true
government,Alawa Primary School,Alawa,0810,(08) 899 77666,alawa.school@ntschools.net,http://www.alawaprimary.nt.edu.au,http://www.alawaprimary.nt.edu.au,https://acaraweb.azurewebsites.net/contact-us/acara-data-access,2026-02-21,-12.38022,130.87754,true
government,Anula Primary School,Anula,0812,(08) 899 77500,anula.admin@ntschools.net,https://www.anulaprimaryschool.com/general-information,https://www.anulaprimaryschool.com/,https://acaraweb.azurewebsites.net/contact-us/acara-data-access,2026-02-21,-12.39162,130.89369,true
government,Bakewell Primary School,Bakewell,0832,(08) 899 77400,admin.bakewell@education.nt.gov.au,https://bakewellprimary.com.au/contact/,http://www.bakewellprimary.nt.edu.au,https://acaraweb.azurewebsites.net/contact-us/acara-data-access,2026-02-21,-12.49362,130.99373,true
government,Bees Creek Primary School,Freds Pass,0822,(08) 8983 3222,bees.creek@education.nt.gov.au,,http://beescreekschool.com,https://acaraweb.azurewebsites.net/contact-us/acara-data-access,2026-02-21,-12.5408,131.0528,true
government,Berry Springs Primary School,Berry Springs,0838,(08) 7923 0366,berrysprings.primary@education.nt.gov.au,https://berryspringsprimary.nt.edu.au/,http://www.berryspringsprimary.nt.edu.au,https://acaraweb.azurewebsites.net/contact-us/acara-data-access,2026-02-21,-12.7159,130.98749,true
government,Bradshaw Primary School,Gillen,0870,(08) 895 52100,bradshaw.school@education.nt.gov.au,http://www.bradshawprimary.nt.edu.au/contact2bc2c58b,http://www.bradshawprimary.nt.edu.au,https://acaraweb.azurewebsites.net/contact-us/acara-data-access,2026-02-21,-23.7085,133.8595,true
government,Braitling Primary School,Braitling,0870,(08) 895 85111,admin.braitsch@education.nt.gov.au,https://braitlingps.nt.edu.au/contact/,https://braitlingps.nt.edu.au/,https://acaraweb.azurewebsites.net/contact-us/acara-data-access,2026-02-21,-23.677393,133.867691,true
government,Casuarina Street Primary School,Katherine East,0850,(08) 897 33800,defence.mentor@education.nt.gov.au,https://casuarinastreetprimary.nt.edu.au/contact-us/,https://casuarinastreetprimary.nt.edu.au/,https://acaraweb.azurewebsites.net/contact-us/acara-data-access,2026-02-21,-14.466,132.29644,true
government,Clyde Fenton Primary School,Katherine,0850,(08) 897 33844,admin.clydesch@education.nt.gov.au,https://cfs.nt.edu.au/contact-us18cfc994,https://cfs.nt.edu.au/,https://acaraweb.azurewebsites.net/contact-us/acara-data-access,2026-02-21,-14.4512,132.27042,true
government,Driver Primary School,Driver,0830,(08) 8935 9000,admin.driverprimary@education.nt.gov.au,https://www.driverprimary.nt.edu.au/copy-of-contacts-2023,http://www.driverprimary.nt.edu.au,https://acaraweb.azurewebsites.net/contact-us/acara-data-access,2026-02-21,-12.48559,130.97518,true
government,Durack Primary School,Durack,0830,(08) 899 77555,durack.school@education.nt.gov.au,https://durackschool.com.au/contact/,http://www.durackschool.nt.edu.au,https://acaraweb.azurewebsites.net/contact-us/acara-data-access,2026-02-21,-12.47586,130.97409,true
government,Gillen Primary School,Gillen,0870,(08) 895 52155,gillen.school@education.nt.gov.au,http://www.gillenprimary.nt.edu.au,http://www.gillenprimary.nt.edu.au,https://acaraweb.azurewebsites.net/contact-us/acara-data-access,2026-02-21,-23.708104,133.869042,true
government,Girraween Primary School,Girraween,0836,(08) 8983 3300,admin.girrasch@education.nt.gov.au,https://www.girraweenprimary.nt.edu.au/contacts,http://www.girraweenprimary.nt.edu.au/,https://acaraweb.azurewebsites.net/contact-us/acara-data-access,2026-02-21,-12.5224,131.103,true
government,Gray Primary School,Gray,0830,(08) 8932 1700,admin.graysch@education.nt.gov.au,http://www.grayprimary.nt.edu.au/,http://www.grayprimary.nt.edu.au,https://acaraweb.azurewebsites.net/contact-us/acara-data-access,2026-02-21,-12.48961,130.98015,true
government,Howard Springs Primary School,Howard Springs,0835,(08) 898 30000,howard.springs@education.nt.gov.au,https://www.howardspringsprimary.nt.edu.au/contact-us/,http://www.howardspringsprimary.nt.edu.au/,https://acaraweb.azurewebsites.net/contact-us/acara-data-access,2026-02-21,-12.4955,131.04519,true
government,Humpty Doo Primary School,Humpty Doo,0836,(08) 792 30400,admin.humptydoo@education.nt.gov.au,,http://,https://acaraweb.azurewebsites.net/contact-us/acara-data-access,2026-02-21,-12.576142,131.1027,true
government,Jingili Primary School,Jingili,0810,(08) 898 37555,jingili.school@education.nt.gov.au,,http://www.jingiliprimary.nt.edu.au,https://acaraweb.azurewebsites.net/contact-us/acara-data-access,2026-02-21,-12.38719,130.87423,true
government,Karama Primary School,Karama,0812,(08) 898 37700,karama.school@education.nt.gov.au,,http://,https://acaraweb.azurewebsites.net/contact-us/acara-data-access,2026-02-21,-12.39838,130.91438,true
government,Katherine South Primary School,Katherine South,0850,(08) 8972 1277,admin.kathesch@education.nt.gov.au,,http://www.katherinesouthprimary.nt.edu.au,https://acaraweb.azurewebsites.net/contact-us/acara-data-access,2026-02-21,-14.4802,132.255,true
government,Larapinta Primary School,Alice Springs,0870,(08) 895 85155,larapinta.primary@education.nt.gov.au,http://www.larapintaprimary.nt.edu.au/search,http://www.larapintaprimary.nt.edu.au,https://acaraweb.azurewebsites.net/contact-us/acara-data-access,2026-02-21,-23.696514,133.833392,true
government,Larrakeyah Primary School,Larrakeyah,0820,(08) 8981 3211,larrakeyah.admin@education.nt.gov.au,,http://www.larrakeyahprimary.nt.edu.au,https://acaraweb.azurewebsites.net/contact-us/acara-data-access,2026-02-21,-12.45787,130.82965,true
government,Leanyer Primary School,Leanyer,0812,(08) 8927 4022,admin.leanyer@education.nt.gov.au,,http://www.leanyerschool.nt.edu.au,https://acaraweb.azurewebsites.net/contact-us/acara-data-access,2026-02-21,-12.37524696,130.90042061,true
government,Ludmilla Primary School,Ludmilla,0820,(08) 898 37888,admin.ludmilla@education.nt.gov.au,https://www.ludmillaprimary.nt.edu.au/,http://www.ludmillaprimary.nt.edu.au,https://acaraweb.azurewebsites.net/contact-us/acara-data-access,2026-02-21,-12.42534,130.85556,true
government,MacFarlane Primary School,Katherine East,0850,(08) 896 51700,admin.macfasch@education.nt.gov.au,https://macfarlaneprimary.nt.edu.au,http://www.macfarlaneprimary.nt.edu.au/,https://acaraweb.azurewebsites.net/contact-us/acara-data-access,2026-02-21,-14.4666,132.28311,true
government,Malak Primary School,Malak,0812,(08) 899 77600,admin.malak@ntschools.net,https://www.malakprimary.nt.edu.au/,http://www.malakprimary.nt.edu.au,https://acaraweb.azurewebsites.net/contact-us/acara-data-access,2026-02-21,-12.39283,130.90309,true
government,Manunda Terrace Primary School,Karama,0812,(08) 899 77366,manunda.school@ntschools.net,https://www.manundaterraceprimaryschool.com/contact-us,https://www.manundaterraceprimaryschool.com/,https://acaraweb.azurewebsites.net/contact-us/acara-data-access,2026-02-21,-12.40311,130.91926,true
government,Millner Primary School,Millner,0810,(08) 792 30333,admin.millnerps@education.nt.gov.au,https://www.millnerprimary.nt.edu.au/contact/,http://www.millnerprimary.nt.edu.au,https://acaraweb.azurewebsites.net/contact-us/acara-data-access,2026-02-21,-12.390722,130.85947,true
government,Moil Primary School,Moil,0810,(08) 898 37530,admin.moilsch@education.nt.gov.au,https://www.moilschool.nt.edu.au/contact-us/,http://www.moilschool.nt.edu.au,https://acaraweb.azurewebsites.net/contact-us/acara-data-access,2026-02-21,-12.38794,130.88067,true
government,Moulden Primary School,Moulden,0830,(08) 8930 5900,mackilloopcollege@nt.catholic.edu.au,https://mackillopnt.catholic.edu.au/,https://www.mackillopnt.catholic.edu.au/,https://acaraweb.azurewebsites.net/contact-us/acara-data-access,2026-02-21,-12.5065,130.97113,true
government,Nakara Primary School,Nakara,0810,(08) 8927 9823,nakara.primary@education.nt.gov.au,https://www.nakaraprimary.nt.edu.au/,https://www.nakaraprimary.nt.edu.au/,https://acaraweb.azurewebsites.net/contact-us/acara-data-access,2026-02-21,-12.37014,130.87776,true
government,Nhulunbuy Primary School,Nhulunbuy,0880,(08) 898 70022,nps.frontoffice@education.nt.gov.au,https://www.nhulunbuyprimary.nt.edu.au/contact-us/,https://www.nhulunbuyprimary.nt.edu.au/,https://acaraweb.azurewebsites.net/contact-us/acara-data-access,2026-02-21,-12.1821,136.7841,true
government,Nightcliff Primary School,Nightcliff,0810,(08) 8948 8488,nightcliff.ps@education.nt.gov.au,https://www.nightcliffprimary.nt.edu.au/contact-us,https://www.nightcliffprimary.nt.edu.au/,https://acaraweb.azurewebsites.net/contact-us/acara-data-access,2026-02-21,-12.38057,130.84984,true
government,Parap Primary School,Parap,0820,(08) 898 22922,parapps.office@education.nt.gov.au,https://www.parapprimary.com.au/search,http://www.parapprimary.com.au,https://acaraweb.azurewebsites.net/contact-us/acara-data-access,2026-02-21,-12.42984,130.84432,true
government,Ross Park Primary School,Alice Springs,0870,(08) 895 52000,rosspark.school@education.nt.gov.au,https://rossparkprimary.nt.edu.au/index.php/contact-your-teacher/,https://rossparkprimary.nt.edu.au/,https://acaraweb.azurewebsites.net/contact-us/acara-data-access,2026-02-21,-23.6936,133.8919,true
government,Sadadeen Primary School,Alice Springs,0870,(08) 895 52299,sadadeen.primary@education.nt.gov.au,https://www.sadadeenprimary.nt.edu.au/,https://www.sadadeenprimary.nt.edu.au/,https://acaraweb.azurewebsites.net/contact-us/acara-data-access,2026-02-21,-23.701331,133.8975,true
government,Stuart Park Primary School,Stuart Park,0820,(08) 899 77333,stuartpark.school@education.nt.gov.au,https://stuartparkprimary.nt.edu.au/,https://stuartparkprimary.nt.edu.au/,https://acaraweb.azurewebsites.net/contact-us/acara-data-access,2026-02-21,-12.44091,130.8451,true
government,Tennant Creek Primary School,Tennant Creek,0860,(08) 896 32424,admin.tennasch@education.nt.gov.au,,https://www.facebook.com/tennantcreekprimaryschoolcouncil/,https://acaraweb.azurewebsites.net/contact-us/acara-data-access,2026-02-21,-19.6501,134.18925,true
government,Wagaman Primary School,Wagaman,0810,(08) 8922 6011,wagaman.school@education.nt.gov.au,http://www.wagamanprimary.nt.edu.au/index.php/contact,http://www.wagamanprimary.nt.edu.au,https://acaraweb.azurewebsites.net/contact-us/acara-data-access,2026-02-21,-12.37957,130.88474,true
government,Wanguri Primary School,Wanguri,0810,(08) 8927 1655,wanguri.prim@education.nt.gov.au,https://www.wanguriprimary.nt.edu.au/contact/,http://wanguriprimary.nt.edu.au,https://acaraweb.azurewebsites.net/contact-us/acara-data-access,2026-02-21,-12.37129,130.88711,true
government,Woodroffe Primary School,Woodroffe,0830,(08) 898 37600,woodroffe.ps@education.nt.gov.au,,https://woodroffeps.nt.edu.au/,https://acaraweb.azurewebsites.net/contact-us/acara-data-access,2026-02-21,-12.50617,130.98241,true
government,Wulagi Primary School,Wulagi,0812,(08) 898 37800,wulagi.primary@education.nt.gov.au,https://wulagiprimary.nt.edu.au/contact/,https://wulagiprimary.nt.edu.au/,https://acaraweb.azurewebsites.net/contact-us/acara-data-access,2026-02-21,-12.38335,130.89537,true
government,Alyangula Area School,Alyangula,0885,(08) 8987 6366,alyangula.admin@education.nt.gov.au,http://www.alyangula.nt.edu.au/site-search,http://www.alyangula.nt.edu.au,https://acaraweb.azurewebsites.net/contact-us/acara-data-access,2026-02-21,-13.84964,136.42011,true
government,Batchelor Area School,Batchelor,0845,(08) 8976 0077,batchelor.as@education.nt.gov.au,,https://www.batchelorschool.com.au/,https://acaraweb.azurewebsites.net/contact-us/acara-data-access,2026-02-21,-13.046103,131.033019,true
government,Jabiru Area School,Jabiru,0886,(08) 8938 3333,teach.det@education.nt.gov.au,https://app4.vision6.com.au/em/forms/subscribe.php?db=833291&s=826215&a=110991&k=nvC2NAaWEnq9wAj7eriWv7oIKfnhXNkUECJGj1YJqCk&va=5,https://N/A,https://acaraweb.azurewebsites.net/contact-us/acara-data-access,2026-02-21,-12.67577,132.83534,true
government,Alekarenge School,Ali Curung,0872,(08) 8964 1957,admin.alekacec@education.nt.gov.au,,http://www.nationwide.com.au/alekarengeschool/,https://acaraweb.azurewebsites.net/contact-us/acara-data-access,2026-02-21,-21.003806,134.405661,true
government,Angurugu School,Angurugu,0822,(08) 8987 6355,admin.angurcec@education.nt.gov.au,,https://www.facebook.com/anguruguschool/,https://acaraweb.azurewebsites.net/contact-us/acara-data-access,2026-02-21,-13.98253,136.45933,true
government,Borroloola School,Borroloola,0854,(08) 896 51800,admin.borrosch@education.nt.gov.au,https://www.borroloolaschool.nt.edu.au/,https://www.borroloolaschool.nt.edu.au/,https://acaraweb.azurewebsites.net/contact-us/acara-data-access,2026-02-21,-16.0582,136.30649,true
government,Gapuwiyak School,Gapuwiyak,0880,(08) 8987 9122,christopher.oneill@education.nt.gov.au,,https://www.facebook.com/gapuwiyakschool/,https://acaraweb.azurewebsites.net/contact-us/acara-data-access,2026-02-21,-12.50553,135.80806,true
government,Gunbalanya School,Gunbalanya,0822,(08) 8979 0181,admin.gunbacec@education.nt.gov.au,,https://www.yourcareer.gov.au/resources/case-studies/gunbalanya-school-nt,https://acaraweb.azurewebsites.net/contact-us/acara-data-access,2026-02-21,-12.32135,133.05709,true
government,Kalkaringi School,Kalkarindji,0852,(08) 896 51888,kalkaringi.admin@ntschools.net,https://kalkaringischool.com.au/Contact,https://kalkaringischool.com.au/,https://acaraweb.azurewebsites.net/contact-us/acara-data-access,2026-02-21,-17.44597,130.83233,true
government,Lajamanu School,Lajamanu,0852,(08) 8975 0946,teach.det@education.nt.gov.au,https://app4.vision6.com.au/em/forms/subscribe.php?db=833291&s=826215&a=110991&k=nvC2NAaWEnq9wAj7eriWv7oIKfnhXNkUECJGj1YJqCk&va=5,https://n/a,https://acaraweb.azurewebsites.net/contact-us/acara-data-access,2026-02-21,-18.3353,130.633981,true
government,Maningrida College,Maningrida,0822,(08) 8979 5950,admin.maningrida@education.nt.gov.au,https://www.maningridacollege.nt.edu.au/,http://www.maningridacollege.nt.edu.au/,https://acaraweb.azurewebsites.net/contact-us/acara-data-access,2026-02-21,-12.05041,134.22333,true
government,Milingimbi School,Milingimbi,0822,(08) 8987 9902,chris.hudson@education.nt.gov.au,,https://www.facebook.com/p/Milingimbi-Community-Education-Centre-100077915658116/,https://acaraweb.azurewebsites.net/contact-us/acara-data-access,2026-02-21,-12.1021,134.9201,true
government,Ngukurr School,Ngukurr,0852,(08) 8975 4680,ngukurr.cec@education.nt.gov.au,,https://n/a,https://acaraweb.azurewebsites.net/contact-us/acara-data-access,2026-02-21,-14.7285,134.733,true
government,Numbulwar School,Numbulwar,0822,(08) 8975 4650,numbulwar.school@education.nt.gov.au,,https://n/a,https://acaraweb.azurewebsites.net/contact-us/acara-data-access,2026-02-21,-14.27811,135.74119,true
government,Ramingining School,Ramingining,0822,(08) 8979 7924,teach.det@education.nt.gov.au,https://app4.vision6.com.au/em/forms/subscribe.php?db=833291&s=826215&a=110991&k=nvC2NAaWEnq9wAj7eriWv7oIKfnhXNkUECJGj1YJqCk&va=5,https://n/a,https://acaraweb.azurewebsites.net/contact-us/acara-data-access,2026-02-21,-12.32641,134.92619,true
government,Shepherdson College,Galiwinku,0822,(08) 8987 9044,principal.shepherdson@education.nt.gov.au,,https://www.elcho.org/welcome,https://acaraweb.azurewebsites.net/contact-us/acara-data-access,2026-02-21,-12.02856,135.56757,true
government,Yirrkala School,Yirrkala,0880,(08) 898 71988,admin.yirrkala@ntschools.net,,https://www.facebook.com/yirrkalaschool/,https://acaraweb.azurewebsites.net/contact-us/acara-data-access,2026-02-21,-12.25189,136.89452,true
government,Yuendumu School,Yuendumu,0872,(08) 8956 4011,reception.yuendumu@education.nt.gov.au,https://yuendumuschool.nt.edu.au/,http://www.yuendumuschool.nt.edu.au,https://acaraweb.azurewebsites.net/contact-us/acara-data-access,2026-02-21,-22.25565,131.796889,true
government,Henbury School,Tiwi,0810,(08) 899 77077,henbury.admin@education.nt.gov.au,http://www.henburyschool.org.au/site-search,http://www.henburyschool.org.au/,https://acaraweb.azurewebsites.net/contact-us/acara-data-access,2026-02-21,-12.36771254021427,130.88412789556298,true
government,Nemarluk School,Alawa,0810,(08) 898 50400,admin.nemarluk@education.nt.gov.au,http://nemarlukschool.com.au/,http://nemarlukschool.com.au/,https://acaraweb.azurewebsites.net/contact-us/acara-data-access,2026-02-21,-12.380037,130.874967,true
government,Laynhapuy Homelands School,Yirrkala,0880,(08) 898 71224,lhs.admin@ntschools.net,,http://,https://acaraweb.azurewebsites.net/contact-us/acara-data-access,2026-02-21,-12.2528,136.888,true
government,Acacia Hill School,Sadadeen,0871,(08) 895 52222,acaciahill.school@education.nt.gov.au,http://www.acaciahill.nt.edu.au/contact,http://www.acaciahill.nt.edu.au/,https://acaraweb.azurewebsites.net/contact-us/acara-data-access,2026-02-21,-23.7007,133.898,true
government,Adelaide River School,Adelaide River,0846,(08) 8976 7034,teach.det@education.nt.gov.au,https://app4.vision6.com.au/em/forms/subscribe.php?db=833291&s=826215&a=110991&k=nvC2NAaWEnq9wAj7eriWv7oIKfnhXNkUECJGj1YJqCk&va=5,https://www.teachintheterritory.nt.gov.au/schools/adelaide-river-school,https://acaraweb.azurewebsites.net/contact-us/acara-data-access,2026-02-21,-13.2371,131.10926,true
government,Alcoota School,Engawala,0872,(08) 8956 9977,teach.det@education.nt.gov.au,https://app4.vision6.com.au/em/forms/subscribe.php?db=833291&s=826215&a=110991&k=nvC2NAaWEnq9wAj7eriWv7oIKfnhXNkUECJGj1YJqCk&va=5,https://n/a,https://acaraweb.azurewebsites.net/contact-us/acara-data-access,2026-02-21,-22.80235,134.45452,true
government,Alpurrurulam School,Alpurrurulam,4825,(07) 4748 4887,teach.det@education.nt.gov.au,https://app4.vision6.com.au/em/forms/subscribe.php?db=833291&s=826215&a=110991&k=nvC2NAaWEnq9wAj7eriWv7oIKfnhXNkUECJGj1YJqCk&va=5,https://n/a,https://acaraweb.azurewebsites.net/contact-us/acara-data-access,2026-02-21,-20.98775,137.84839,true
government,Amoonguna School,Amoonguna,0873,(08) 8952 3402,teach.det@education.nt.gov.au,https://app4.vision6.com.au/em/forms/subscribe.php?db=833291&s=826215&a=110991&k=nvC2NAaWEnq9wAj7eriWv7oIKfnhXNkUECJGj1YJqCk&va=5,https://n/a,https://acaraweb.azurewebsites.net/contact-us/acara-data-access,2026-02-21,-23.767906,133.938539,true
government,Ampilatwatja School,Ampilatwatja,0872,(08) 8956 9265,teach.det@education.nt.gov.au,https://app4.vision6.com.au/em/forms/subscribe.php?db=833291&s=826215&a=110991&k=nvC2NAaWEnq9wAj7eriWv7oIKfnhXNkUECJGj1YJqCk&va=5,https://n/a,https://acaraweb.azurewebsites.net/contact-us/acara-data-access,2026-02-21,-21.65369,135.22478,true
government,Areyonga School,Areyonga,0872,(08) 8956 7303,anton.devaratnam@education.nt.gov.au,,https://www.truelocal.com.au/business/areyonga-school/areyonga,https://acaraweb.azurewebsites.net/contact-us/acara-data-access,2026-02-21,-24.0737,132.27011,true
government,Barunga School,Barunga,0852,(08) 8975 4502,teach.det@education.nt.gov.au,https://app4.vision6.com.au/em/forms/subscribe.php?db=833291&s=826215&a=110991&k=nvC2NAaWEnq9wAj7eriWv7oIKfnhXNkUECJGj1YJqCk&va=5,https://n/a,https://acaraweb.azurewebsites.net/contact-us/acara-data-access,2026-02-21,-14.52456,132.86603,true
government,Belyuen School,Belyuen,0822,(08) 8978 5085,laura.graham1@education.nt.gov.au,,https://n/a,https://acaraweb.azurewebsites.net/contact-us/acara-data-access,2026-02-21,-12.5393,130.701214,true
government,Bonya School,Anatye,0872,(08) 8956 6352,juliet.mokoto@education.nt.gov.au,,https://n/a,https://acaraweb.azurewebsites.net/contact-us/acara-data-access,2026-02-21,-22.77886,136.16675,true
government,Bulla Camp School,Baines,0852,(08) 9167 8957,teach.det@education.nt.gov.au,https://app4.vision6.com.au/em/forms/subscribe.php?db=833291&s=826215&a=110991&k=nvC2NAaWEnq9wAj7eriWv7oIKfnhXNkUECJGj1YJqCk&va=5,https://n/a,https://acaraweb.azurewebsites.net/contact-us/acara-data-access,2026-02-21,-15.9353,129.7122,true
government,Bulman School,Bulman Weemol,0852,(08) 8975 4707,teach.det@education.nt.gov.au,https://app4.vision6.com.au/em/forms/subscribe.php?db=833291&s=826215&a=110991&k=nvC2NAaWEnq9wAj7eriWv7oIKfnhXNkUECJGj1YJqCk&va=5,https://n/a,https://acaraweb.azurewebsites.net/contact-us/acara-data-access,2026-02-21,-13.66483,134.33036,true
government,Canteen Creek School,Canteen Creek,0872,(08) 8964 1505,teach.det@education.nt.gov.au,https://app4.vision6.com.au/em/forms/subscribe.php?db=833291&s=826215&a=110991&k=nvC2NAaWEnq9wAj7eriWv7oIKfnhXNkUECJGj1YJqCk&va=5,https://n/a,https://acaraweb.azurewebsites.net/contact-us/acara-data-access,2026-02-21,-20.644769,135.584506,true
government,Douglas Daly School,Douglas-Daly,0822,(08) 8978 2836,rosemary.sullivan@education.nt.gov.au,,http://,https://acaraweb.azurewebsites.net/contact-us/acara-data-access,2026-02-21,-13.8323,131.188,true
government,Dundee Beach School,Dundee Beach,0840,(08) 8978 2212,dundee.school@education.nt.gov.au,,https://n/a,https://acaraweb.azurewebsites.net/contact-us/acara-data-access,2026-02-21,-12.7514,130.378,true
government,Elliott School,Elliott,0862,(08) 8969 2122,kevin.gaskin@education.nt.gov.au,,https://n/a,https://acaraweb.azurewebsites.net/contact-us/acara-data-access,2026-02-21,-17.5553,133.54,true
government,Epenarra School,Wutunugurra,0872,(08) 8964 1512,teach.det@education.nt.gov.au,https://app4.vision6.com.au/em/forms/subscribe.php?db=833291&s=826215&a=110991&k=nvC2NAaWEnq9wAj7eriWv7oIKfnhXNkUECJGj1YJqCk&va=5,https://n/a,https://acaraweb.azurewebsites.net/contact-us/acara-data-access,2026-02-21,-20.46311,135.24972,true
government,Finke School,Finke,0872,(08) 8956 0960,finke.school@education.nt.gov.au,,https://n/a,https://acaraweb.azurewebsites.net/contact-us/acara-data-access,2026-02-21,-25.5821,134.578486,true
government,Haasts Bluff School,Haasts Bluff,0872,(08) 8956 8550,geoff.gillman@education.nt.gov.au,,http://,https://acaraweb.azurewebsites.net/contact-us/acara-data-access,2026-02-21,-23.44753,131.88003,true
government,Harts Range School,Atitjere,0872,(08) 8956 9515,teach.det@education.nt.gov.au,https://app4.vision6.com.au/em/forms/subscribe.php?db=833291&s=826215&a=110991&k=nvC2NAaWEnq9wAj7eriWv7oIKfnhXNkUECJGj1YJqCk&va=5,https://n/a,https://acaraweb.azurewebsites.net/contact-us/acara-data-access,2026-02-21,-22.9844,134.933,true
government,Jilkminggan School,Jilkminggan,0852,(08) 8975 4896,teach.det@education.nt.gov.au,https://app4.vision6.com.au/em/forms/subscribe.php?db=833291&s=826215&a=110991&k=nvC2NAaWEnq9wAj7eriWv7oIKfnhXNkUECJGj1YJqCk&va=5,https://n/a,https://acaraweb.azurewebsites.net/contact-us/acara-data-access,2026-02-21,-14.95402,133.30123,true
government,Laramba School,Laramba,0872,(08) 8956 8771,laramba.school@education.nt.gov.au,,http://,https://acaraweb.azurewebsites.net/contact-us/acara-data-access,2026-02-21,-22.533,132.75683,true
government,Mamaruni School,Minjilang,0822,(08) 8979 0255,josh.dean@education.nt.gov.au,,http://www.mamarunischool.nt.edu.au/,https://acaraweb.azurewebsites.net/contact-us/acara-data-access,2026-02-21,-11.14856,132.57775,true
government,Mataranka School,Mataranka,0852,(08) 8975 4543,teach.det@education.nt.gov.au,https://app4.vision6.com.au/em/forms/subscribe.php?db=833291&s=826215&a=110991&k=nvC2NAaWEnq9wAj7eriWv7oIKfnhXNkUECJGj1YJqCk&va=5,https://n/a,https://acaraweb.azurewebsites.net/contact-us/acara-data-access,2026-02-21,-14.921873,133.065136,true
government,Mbunghara School,Papunya,0872,(08) 8956 8503,mbunghara.school@education.nt.gov.au,,https://bushtel.nt.gov.au/profile/102,https://acaraweb.azurewebsites.net/contact-us/acara-data-access,2026-02-21,-23.29019,132.35687,true
government,Middle Point School,Middle Point,0822,(08) 8988 1688,middle.pt@education.nt.gov.au,http://www.middlepointschool.nt.edu.au/,http://www.middlepointschool.nt.edu.au/,https://acaraweb.azurewebsites.net/contact-us/acara-data-access,2026-02-21,-12.57599,131.31486,true
government,Milikapiti School,Milikapiti,0822,(08) 8978 3960,katrina.vanstraalen@education.nt.gov.au,,https://n/a,https://acaraweb.azurewebsites.net/contact-us/acara-data-access,2026-02-21,-11.4194,130.6711,true
government,Milyakburra School,Milyakburra,0822,(08) 8987 6084,teach.det@education.nt.gov.au,https://app4.vision6.com.au/em/forms/subscribe.php?db=833291&s=826215&a=110991&k=nvC2NAaWEnq9wAj7eriWv7oIKfnhXNkUECJGj1YJqCk&va=5,https://n/a,https://acaraweb.azurewebsites.net/contact-us/acara-data-access,2026-02-21,-13.7818,136.1956,true
government,Minyerri School,Miniyeri,0852,(08) 8975 9972,teach.det@education.nt.gov.au,https://app4.vision6.com.au/em/forms/subscribe.php?db=833291&s=826215&a=110991&k=nvC2NAaWEnq9wAj7eriWv7oIKfnhXNkUECJGj1YJqCk&va=5,https://n/a,https://acaraweb.azurewebsites.net/contact-us/acara-data-access,2026-02-21,-15.221225,134.08281,true
government,Mount Allan School,Yuelamu,0872,(08) 8956 8860,dowreen.lata@education.nt.gov.au,,https://www.australiaedu.info/nt-mount-allan-school/,https://acaraweb.azurewebsites.net/contact-us/acara-data-access,2026-02-21,-22.2566,132.2081,true
government,Murray Downs School,Ali Curung,0872,(08) 8964 1951,teach.det@education.nt.gov.au,https://app4.vision6.com.au/em/forms/subscribe.php?db=833291&s=826215&a=110991&k=nvC2NAaWEnq9wAj7eriWv7oIKfnhXNkUECJGj1YJqCk&va=5,https://n/a,https://acaraweb.azurewebsites.net/contact-us/acara-data-access,2026-02-21,-21.0477,134.67685,true
government,Mutitjulu School,Mutitjulu,0872,(08) 8956 2547,contact@nc.nt.edu.au,http://www.nyangatjatjaracollege.org.au/contact,http://www.nyangatjatjaracollege.org.au/campuses/mutitjulu,https://acaraweb.azurewebsites.net/contact-us/acara-data-access,2026-02-21,-25.3481,131.064,true
government,Neutral Junction School,Barrow Creek,0872,(08) 8956 9754,ruth.rawnsley@education.nt.gov.au,,https://n/a,https://acaraweb.azurewebsites.net/contact-us/acara-data-access,2026-02-21,-21.515756,133.994783,true
government,Newcastle Waters School,Newcastle Waters,0862,(08) 8964 4566,mia.roseblade-kuhn@education.nt.gov.au,,https://n/a,https://acaraweb.azurewebsites.net/contact-us/acara-data-access,2026-02-21,-17.37253,133.41007,true
government,Nganmarriyanga School,Nganmarriyanga,0822,(08) 8978 2380,tracy.brislane@education.nt.gov.au,,http://,https://acaraweb.azurewebsites.net/contact-us/acara-data-access,2026-02-21,-14.3528,129.882,true
government,Ntaria School,Hermannsburg,0872,(08) 8956 7424,ebony.arthur@education.nt.gov.au,,https://www.facebook.com/people/Ntaria-School/100057140032771/,https://acaraweb.azurewebsites.net/contact-us/acara-data-access,2026-02-21,-23.94262,132.776051,true
government,Nyirripi School,Nyirripi,0872,(08) 8956 8880,clarice.oleary@education.nt.gov.au,,https://www.facebook.com/NyirrpiSchool/,https://acaraweb.azurewebsites.net/contact-us/acara-data-access,2026-02-21,-22.64994,130.55281,true
government,Papunya School,Papunya,0872,(08) 8956 8515,papunya.admin@education.nt.gov.au,,http://,https://acaraweb.azurewebsites.net/contact-us/acara-data-access,2026-02-21,-23.20283,131.91031,true
government,Peppimenarti School,Peppimenarti,0822,0447 395 828,peppimenarti.school@education.nt.gov.au,,https://www.peppimenartischool.nt.edu.au/,https://acaraweb.azurewebsites.net/contact-us/acara-data-access,2026-02-21,-14.14978,130.077,true
government,Nitjpurru School,Nitjpurru,0852,(08) 8975 0812,teach.det@education.nt.gov.au,https://app4.vision6.com.au/em/forms/subscribe.php?db=833291&s=826215&a=110991&k=nvC2NAaWEnq9wAj7eriWv7oIKfnhXNkUECJGj1YJqCk&va=5,https://n/a,https://acaraweb.azurewebsites.net/contact-us/acara-data-access,2026-02-21,-16.81439,131.22025,true
government,Pine Creek School,Pine Creek,0847,(08) 8976 1228,jo.moon@education.nt.gov.au,,https://directory.ntschools.net/#/schools/details/pinecsch,https://acaraweb.azurewebsites.net/contact-us/acara-data-access,2026-02-21,-13.8219,131.836,true
government,Pularumpi School,Pirlangimpi,0822,(08) 8978 3961,kane.griffin@education.nt.gov.au,,https://n/a,https://acaraweb.azurewebsites.net/contact-us/acara-data-access,2026-02-21,-11.4036,130.417,true
government,Robinson River School,Robinson River,0852,(08) 8975 9956,samuel.sailor@education.nt.gov.au,,https://www.facebook.com/profile.php?id=100057281446140,https://acaraweb.azurewebsites.net/contact-us/acara-data-access,2026-02-21,-16.7597,136.981,true
government,Stirling School,Wilora,0872,(08) 8956 9759,tony.tree@education.nt.gov.au,,https://n/a,https://acaraweb.azurewebsites.net/contact-us/acara-data-access,2026-02-21,-21.73983,133.73247,true
government,Ti Tree School,Ti Tree,0872,(08) 8956 9743,teach.det@education.nt.gov.au,https://app4.vision6.com.au/em/forms/subscribe.php?db=833291&s=826215&a=110991&k=nvC2NAaWEnq9wAj7eriWv7oIKfnhXNkUECJGj1YJqCk&va=5,https://n/a,https://acaraweb.azurewebsites.net/contact-us/acara-data-access,2026-02-21,-22.12793,133.41976,true
government,Timber Creek School,Timber Creek,0852,(08) 8975 0714,teach.det@education.nt.gov.au,https://app4.vision6.com.au/em/forms/subscribe.php?db=833291&s=826215&a=110991&k=nvC2NAaWEnq9wAj7eriWv7oIKfnhXNkUECJGj1YJqCk&va=5,https://n/a,https://acaraweb.azurewebsites.net/contact-us/acara-data-access,2026-02-21,-15.6481,130.46513,true
government,Tipperary Station School,Tipperary,0822,(08) 8978 2765,rebecca.evans1@education.nt.gov.au,,https://n/a,https://acaraweb.azurewebsites.net/contact-us/acara-data-access,2026-02-21,-13.73335,131.04168,true
government,Titjikala School,Titjikala,0872,(08) 8956 0927,titjikala.school@education.nt.gov.au,https://www.goodschools.com.au/compare-schools/search,https://www.goodschools.com.au/compare-schools/in-titjikala-872/titjikala-school,https://acaraweb.azurewebsites.net/contact-us/acara-data-access,2026-02-21,-24.67244,134.07331,true
government,Alyarrmandumanja Umbakumba School,Umbakumba,0822,(08) 8987 6793,admin.umbakumba@education.nt.gov.au,https://www.alyarrmandumanja.nt.edu.au/,https://www.alyarrmandumanja.nt.edu.au/,https://acaraweb.azurewebsites.net/contact-us/acara-data-access,2026-02-21,-13.85975,136.81193,true
government,Urapunga School,Wilton,0852,(08) 8975 4645,teach.det@education.nt.gov.au,https://app4.vision6.com.au/em/forms/subscribe.php?db=833291&s=826215&a=110991&k=nvC2NAaWEnq9wAj7eriWv7oIKfnhXNkUECJGj1YJqCk&va=5,https://n/a,https://acaraweb.azurewebsites.net/contact-us/acara-data-access,2026-02-21,-14.710481,134.564289,true
government,Wallace Rockhole School,Wallace Rockhole,0872,(08) 8956 7330,teach.det@education.nt.gov.au,https://app4.vision6.com.au/em/forms/subscribe.php?db=833291&s=826215&a=110991&k=nvC2NAaWEnq9wAj7eriWv7oIKfnhXNkUECJGj1YJqCk&va=5,https://n/a,https://acaraweb.azurewebsites.net/contact-us/acara-data-access,2026-02-21,-24.1233,133.085237,true
government,Walungurru School,Kintore,0872,(08)  8964 6056,walungurru.school@education.nt.gov.au,https://directory.ntschools.net/#/schools/details/walunsch,https://walungurruschool.nt.edu.au/,https://acaraweb.azurewebsites.net/contact-us/acara-data-access,2026-02-21,-23.27712,129.38771,true
government,Warruwi School,Warruwi,0822,(08) 8979 0222,teach.det@education.nt.gov.au,https://app4.vision6.com.au/em/forms/subscribe.php?db=833291&s=826215&a=110991&k=nvC2NAaWEnq9wAj7eriWv7oIKfnhXNkUECJGj1YJqCk&va=5,https://n/a,https://acaraweb.azurewebsites.net/contact-us/acara-data-access,2026-02-21,-11.64742,133.38947,true
government,Watiyawanu School,Mount Liebig,0872,(08) 8956 8555,rachael.cole@education.nt.gov.au,,https://n/a,https://acaraweb.azurewebsites.net/contact-us/acara-data-access,2026-02-21,-23.266169,131.274489,true
government,Willowra School,Willowra,0872,(08) 8956 8408,willowra.school@education.nt.gov.au,,https://n/a,https://acaraweb.azurewebsites.net/contact-us/acara-data-access,2026-02-21,-21.244506,132.616106,true
government,Rockhampton Downs School,Tablelands,0862,(08) 8964 4675,cindy.thomson@education.nt.gov.au,,https://www.facebook.com/wogyalacommunity/,https://acaraweb.azurewebsites.net/contact-us/acara-data-access,2026-02-21,-18.947861,135.19435,true
government,Woolianna School,Daly River,0822,(08) 8978 2984,woolianna.school@education.nt.gov.au,,http://,https://acaraweb.azurewebsites.net/contact-us/acara-data-access,2026-02-21,-13.7109,130.681,true
government,Wugularr School,Beswick,0852,(08) 8975 4529,teach.det@education.nt.gov.au,https://app4.vision6.com.au/em/forms/subscribe.php?db=833291&s=826215&a=110991&k=nvC2NAaWEnq9wAj7eriWv7oIKfnhXNkUECJGj1YJqCk&va=5,https://n/a,https://acaraweb.azurewebsites.net/contact-us/acara-data-access,2026-02-21,-14.5614,133.118,true
government,Yarralin School,Yarralin,0852,(08) 8975 0809,teach.det@education.nt.gov.au,https://app4.vision6.com.au/em/forms/subscribe.php?db=833291&s=826215&a=110991&k=nvC2NAaWEnq9wAj7eriWv7oIKfnhXNkUECJGj1YJqCk&va=5,https://n/a,https://acaraweb.azurewebsites.net/contact-us/acara-data-access,2026-02-21,-16.44684,130.88179,true
government,Yulara School,Yulara,0872,(08) 8956 2014,yulara.school@education.nt.gov.au,https://yularaschool.nt.edu.au/,https://yularaschool.nt.edu.au/,https://acaraweb.azurewebsites.net/contact-us/acara-data-access,2026-02-21,-25.23514,130.98364,true
government,Manyallaluk School,Eva Valley,0822,(08) 8975 4438,teach.det@education.nt.gov.au,https://app4.vision6.com.au/em/forms/subscribe.php?db=833291&s=826215&a=110991&k=nvC2NAaWEnq9wAj7eriWv7oIKfnhXNkUECJGj1YJqCk&va=5,https://n/a,https://acaraweb.azurewebsites.net/contact-us/acara-data-access,2026-02-21,-14.2666,132.829,true
government,Amanbidji School,Timber Creek,0852,(08) 9168 7380,teach.det@education.nt.gov.au,https://app4.vision6.com.au/em/forms/subscribe.php?db=833291&s=826215&a=110991&k=nvC2NAaWEnq9wAj7eriWv7oIKfnhXNkUECJGj1YJqCk&va=5,https://n/a,https://acaraweb.azurewebsites.net/contact-us/acara-data-access,2026-02-21,-16.427522,129.617986,true
government,Baniyala Garrangali School,East Arnhem,0822,(08) 8987 9114,teach.det@education.nt.gov.au,https://app4.vision6.com.au/em/forms/subscribe.php?db=833291&s=826215&a=110991&k=nvC2NAaWEnq9wAj7eriWv7oIKfnhXNkUECJGj1YJqCk&va=5,https://n/a,https://acaraweb.azurewebsites.net/contact-us/acara-data-access,2026-02-21,-13.2004,136.2261,true
government,Darwin Middle School,The Gardens,0820,(08) 894 25200,admin.darwinmiddle@education.nt.gov.au,https://darwinmiddle.nt.edu.au/teacher-contacts/,http://www.darwinmiddle.nt.edu.au,https://acaraweb.azurewebsites.net/contact-us/acara-data-access,2026-02-21,-12.4384,130.836,true
government,Centralian Middle School,Alice Springs,0870,(08) 895 52333,centralian.middle@education.nt.gov.au,https://www.cms.nt.edu.au/site-search,https://www.cms.nt.edu.au/,https://acaraweb.azurewebsites.net/contact-us/acara-data-access,2026-02-21,-23.7091,133.866,true
catholic,Ltyentye Apurte Catholic School,Santa Teresa,0872,(08) 8956 0937,la.admin@nt.catholic.edu.au,http://www.lacecnt.catholic.edu.au/search-results,http://www.lacecnt.catholic.edu.au/,https://acaraweb.azurewebsites.net/contact-us/acara-data-access,2026-02-21,-24.12922,134.37461,true
catholic,Murrupurtiyanuwu Catholic Primary School,Wurrumiyanga,0822,(08) 8978 3986,kellie.mcginlay@nt.catholic.edu.au,https://www.mcpsbathurst.com.au/contact,https://www.mcpsbathurst.com.au/,https://acaraweb.azurewebsites.net/contact-us/acara-data-access,2026-02-21,-11.758671,130.638203,true
catholic,Our Lady of the Sacred Heart Thamarrurr Catholic College,Wadeye,0822,(08) 8978 2477,wa.adminbox@nt.catholic.edu.au,http://www.olshtnt.catholic.edu.au/communication/contact/,http://www.olshtnt.catholic.edu.au/,https://acaraweb.azurewebsites.net/contact-us/acara-data-access,2026-02-21,-14.2404,129.5205,true
catholic,St Francis Xavier Catholic School,Daly River,0822,(08) 8978 2427,admin.dalyriver@nt.catholic.edu.au,http://www.sfxnt.catholic.edu.au/search/,http://www.sfxnt.catholic.edu.au/,https://acaraweb.azurewebsites.net/contact-us/acara-data-access,2026-02-21,-13.75194,130.68797,true
catholic,Xavier Catholic College,Bathurst Island,0822,(08) 8978 3970,admin.xcec@nt.catholic.edu.au,http://www.xcecnt.catholic.edu.au/search-results,http://www.xcecnt.catholic.edu.au/,https://acaraweb.azurewebsites.net/contact-us/acara-data-access,2026-02-21,-11.757347,130.63894,true
independent,The Essington School,Rapid Creek,0810,(08) 8985 0100,administration@essington.nt.edu.au,http://www.essington.nt.edu.au/search,http://www.essington.nt.edu.au/,https://acaraweb.azurewebsites.net/contact-us/acara-data-access,2026-02-21,-12.38071,130.855996,true
independent,Haileybury Rendall School,Berrimah,0828,(08) 8922 1611,haileyburyrendall@haileybury.com.au,https://www.createsend.com/t/subscribeerror?description=,http://www.haileyburyrendall.com.au,https://acaraweb.azurewebsites.net/contact-us/acara-data-access,2026-02-21,-12.44235,130.92232,true
independent,Sattler Christian College,Freds Pass,0822,7922 1500,admin.scc@ntschools.net,https://scc.nt.edu.au/contact-us/,http://www.scc.nt.edu.au,https://acaraweb.azurewebsites.net/contact-us/acara-data-access,2026-02-21,-12.54134,131.05488,true
independent,Living Waters Lutheran School,Alice Springs,0871,(08) 8950 0700,living.waters@ntschools.net,http://www.livingwaterslutheranschool.nt.edu.au/contact-us/,http://www.livingwaterslutheranschool.nt.edu.au,https://acaraweb.azurewebsites.net/contact-us/acara-data-access,2026-02-21,-23.69766,133.83155,true
independent,Marrara Christian College,Marrara,0812,(08) 8920 2000,admin.mcc@ntschools.net,https://www.mcc.nt.edu.au/contact-us/,http://www.mcc.nt.edu.au/,https://acaraweb.azurewebsites.net/contact-us/acara-data-access,2026-02-21,-12.40983686,130.91763078,true
independent,Palmerston Christian College,Marlow Lagoon,0830,(08) 7922 5600,admin.pcc@ntschools.net,https://www.pcc.nt.edu.au/contact-us/,https://www.pcc.nt.edu.au/,https://acaraweb.azurewebsites.net/contact-us/acara-data-access,2026-02-21,-12.49057,130.9645,true
independent,St Philip's College,Alice Springs,0871,(08) 8950 4511,info@stphilips.nt.edu.au,https://www.stphilips.nt.edu.au/search,http://www.stphilips.nt.edu.au/,https://acaraweb.azurewebsites.net/contact-us/acara-data-access,2026-02-21,-23.690364169117,133.883128746033,true
independent,Yirara College,Alice Springs,0872,(08) 8950 5644,info@yirara.nt.edu.au,https://yirara.nt.edu.au/,https://yirara.nt.edu.au/,https://acaraweb.azurewebsites.net/contact-us/acara-data-access,2026-02-21,-23.762231,133.868978,true
independent,Alice Springs Steiner School,Ross,0873,(08) 8952 3897,office@alicesteiner.nt.edu.au,http://www.alicesteiner.nt.edu.au/search/,http://www.alicesteiner.nt.edu.au,https://acaraweb.azurewebsites.net/contact-us/acara-data-access,2026-02-21,-23.743824,133.881575,true
independent,Nhulunbuy Christian College,Nhulunbuy,0881,(08) 8965 2900,admin.mcc@ntschools.net,http://www.ncc.nt.edu.au/contact-us/,http://www.ncc.nt.edu.au/,https://acaraweb.azurewebsites.net/contact-us/acara-data-access,2026-02-21,-12.18901,136.79099,true
independent,Nyangatjatjara College,Yulara,0872,(08) 8956 2257,contact@nc.nt.edu.au,http://www.nyangatjatjaracollege.org.au/contact,http://www.nyangatjatjaracollege.org.au/,https://acaraweb.azurewebsites.net/contact-us/acara-data-access,2026-02-21,-25.228808,130.971231,true
independent,Yipirinya School,Alice Springs,0871,(08) 8952 5633,reception.yipirinya@yipirinya.nt.edu.au,https://www.yipirinya.com.au,http://www.yipirinya.com.au,https://acaraweb.azurewebsites.net/contact-us/acara-data-access,2026-02-21,-23.69766,133.8581,true
independent,Milkwood Steiner School,Berrimah,0828,08 8947 1669,admin@milkwood.nt.edu.au,,http://www.milkwood.nt.edu.au,https://acaraweb.azurewebsites.net/contact-us/acara-data-access,2026-02-21,-12.414473,130.922305,true
independent,Gawa Christian School,Galiwinku,0822,8970 5212,admin.gcs@ntschools.net,https://gcs.nt.edu.au/contact-us/,http://www.gcs.nt.edu.au/,https://acaraweb.azurewebsites.net/contact-us/acara-data-access,2026-02-21,-11.759762,135.903958,true
independent,Tiwi College,Tiwi Islands,0822,08 89709024,adminmanager@tiwicollege.nt.edu.au,http://www.tiwicollege.com/,http://www.tiwicollege.com/,https://acaraweb.azurewebsites.net/contact-us/acara-data-access,2026-02-21,-11.76667,130.88972,true
government,Rosebery Primary School,Rosebery,0832,(08) 792 30100,roseberyps.admin@education.nt.gov.au,http://roseberyprimary.nt.edu.au/search,http://roseberyprimary.nt.edu.au/,https://acaraweb.azurewebsites.net/contact-us/acara-data-access,2026-02-21,-12.51111,130.993714,true
government,Nganambala School,Peppimenarti,0822,(08) 8978 2001,alex.small@education.nt.gov.au,,https://n/a,https://acaraweb.azurewebsites.net/contact-us/acara-data-access,2026-02-21,-14.1701,130.32521,true
government,Mulga Bore School,Ti Tree,0872,(08) 8956 9712,info@australianschoolsdirectory.com.au,https://www.australianschoolsdirectory.com.au/contact.php,https://www.australianschoolsdirectory.com.au/10110/mulga-bore-school-alice-springs,https://acaraweb.azurewebsites.net/contact-us/acara-data-access,2026-02-21,-22.452287,134.211096,true
catholic,St Joseph's Catholic Flexible School,Alice Springs,0870,,stjosephsasflc@youthplus.edu.au,,http://www.youthplus.edu.au/st-josephs-catholic-flc-alice-springs,https://acaraweb.azurewebsites.net/contact-us/acara-data-access,2026-02-21,-23.703629,133.873888,true
catholic,MacKillop Catholic College,Johnston,0832,08 8930 5757,mackilloopcollege@nt.catholic.edu.au,https://mackillopnt.catholic.edu.au/,http://www.mackillopnt.catholic.edu.au,https://acaraweb.azurewebsites.net/contact-us/acara-data-access,2026-02-21,-12.49811605229597,131.00909330359656,true
government,Forrest Parade School,Bellamack,0832,(08) 8997 7111,admin.forrestps@education.nt.gov.au,https://forrestparadeschool.nt.edu.au/wp/,https://forrestparadeschool.nt.edu.au/wp/,https://acaraweb.azurewebsites.net/contact-us/acara-data-access,2026-02-21,-12.513504,130.980774,true
government,Top End School of Flexible Learning,Malak,0812,(08) 899 77199,admin.tesofl@education.nt.gov.au,https://topendschoolofflexiblelearning.nt.edu.au,https://topendschoolofflexiblelearning.nt.edu.au,https://acaraweb.azurewebsites.net/contact-us/acara-data-access,2026-02-21,-12.396194,130.904415,true
catholic,Mother Teresa Catholic Primary School,Zuccoli,0832,(08) 7969 5600,admin.mtcps@nt.catholic.edu.au,https://www.mtcpsnt.catholic.edu.au/contact/,https://www.mtcpsnt.catholic.edu.au/,https://acaraweb.azurewebsites.net/contact-us/acara-data-access,2026-02-21,-12.509629,131.005781,true
government,Palmerston College,Driver,0830,(08) 899 77999,palmerston.college@education.nt.gov.au,https://www.palmerstoncollege.nt.edu.au/,https://www.palmerstoncollege.nt.edu.au/,https://acaraweb.azurewebsites.net/contact-us/acara-data-access,2026-02-21,-12.49487,130.97198,true
independent,Nawarddeken Academy Kabulwarnamyo School,West Arnhem Land,0822,,admin@nawarddeken.org.au,https://nawarddeken.org.au/contact/,https://www.nawarddekenacademy.com,https://acaraweb.azurewebsites.net/contact-us/acara-data-access,2026-02-21,-12.764671,133.845033,true
government,Zuccoli Primary School,Zuccoli,0830,(08) 792 30222,zuccoliprimary@education.nt.gov.au,https://zuccoliprimary.nt.edu.au/site-search,https://zuccoliprimary.nt.edu.au,https://acaraweb.azurewebsites.net/contact-us/acara-data-access,2026-02-21,-12.51105,131.006152,true
independent,Dhupuma Barker,East Arnhem,0880,(08) 8438 7201,reception@barker.nsw.edu.au,https://www.barker.college/search-result/,https://www.barker.college/about-barker/indigenous-education/dhupuma-barker/,https://acaraweb.azurewebsites.net/contact-us/acara-data-access,2026-02-21,-12.21816265,136.7055423,true
independent,Nawarddeken Academy Mamadawerre School,West Arnhem Land,0886,0459 216 141,admin@nawarddeken.org.au,https://nawarddeken.org.au/contact/,https://www.nawarddekenacademy.com,https://acaraweb.azurewebsites.net/contact-us/acara-data-access,2026-02-21,-12.25745447,133.523957,true
independent,Nawarddeken Academy Manmoyi School,West Arnhem Land,0886,0459 216 141,admin@nawarddeken.org.au,https://nawarddeken.org.au/contact/,https://www.nawarddekenacademy.com,https://acaraweb.azurewebsites.net/contact-us/acara-data-access,2026-02-21,-12.54418519,134.1134967,true
independent,Australian International Islamic College Darwin,Berrimah,0828,,admin@aiic.qld.edu.au,https://aiic.qld.edu.au/contact-us/,https://aiic.qld.edu.au/our-campuses/#Darwin-Campus,https://acaraweb.azurewebsites.net/contact-us/acara-data-access,2026-02-21,-12.41994528,130.9175261,true
independent,SEDA College NT,Fannie Bay,0820,1300 337 332,info@sedacollege.nt.edu.au,https://seda.nt.edu.au/search,https://seda.nt.edu.au,https://acaraweb.azurewebsites.net/contact-us/acara-data-access,2026-02-21,-12.42397113,130.8377671,true
independent,Nawarddeken Academy Kunmayali School,West Arnhem Land,0822,0459 216 141,admin@nawarddeken.org.au,https://nawarddeken.org.au/contact/,https://nawarddeken.org.au/,https://acaraweb.azurewebsites.net/contact-us/acara-data-access,2026-02-21,-12.764670372009276,133.84500122070312,true
